stop_id,stop_name,stop_lat,stop_lon
Parent1402625,Pont-de-Claix l'Étoile,45.13748047,5.70257729
Parent8002301,Lindau-Reutin,47.5523844,9.70329627
Parent8002370,Lindau-Aeschach,47.55962297,9.68465623
Parent8002371,Lindau-Insel,47.54433835,9.68047008
Parent8002373,Enzisweiler,47.56413899,9.66543228
Parent8002374,Wasserburg (Bodensee),47.57190321,9.63906673
Parent8002375,Nonnenhorn,47.57511524,9.61267423
Parent8003005,Berlin Ostbahnhof,52.51059838,13.43499678
Parent8011068,Frankfurt (Main) Hbf,50.10714393,8.66379278
Parent8013050,Göttingen,51.53699891,9.92579999
Parent8014181,Dogern,47.60888414,8.1673568
Parent8014228,Karlsruhe Hbf,48.99351443,8.4021854
Parent8014238,Ettlingen West,48.94718182,8.38787524
Parent8014239,Bruchhausen (b Ettl),48.92399051,8.3739783
Parent8014240,Malsch,48.8895082,8.32358281
Parent8014241,Muggensturm,48.87666573,8.27371733
Parent8014245,Rastatt,48.86048094,8.21562328
Parent8014277,Baden-Baden,48.79032778,8.19082978
Parent8014281,Bühl (Baden),48.69667893,8.12929518
Parent8014283,Achern,48.6339911,8.06532615
Parent8014288,Renchen (D),48.59266092,8.00714227
Parent8014289,Appenweier,48.54146062,7.97318595
Parent8014309,Offenburg,48.47647769,7.94672158
Parent8014318,Friesenheim (Baden),48.38158861,7.8629447
Parent8014319,Lahr (Schwarzw),48.34095974,7.83557303
Parent8014324,Orschweier,48.27418936,7.79027998
Parent8014325,Ringsheim/Europa-Park,48.24872492,7.77304131
Parent8014326,Herbolzheim (Breisgau),48.22386423,7.76764243
Parent8014327,Kenzingen,48.19445259,7.76409409
Parent8014328,Riegel-Malterdingen,48.1519666,7.77084942
Parent8014329,Köndringen,48.13745507,7.80292826
Parent8014330,Teningen-Mundingen,48.12877976,7.82440697
Parent8014331,Emmendingen,48.11945531,7.84751164
Parent8014332,Kollmarsreute,48.09826964,7.88707345
Parent8014335,Denzlingen,48.06881594,7.88168356
Parent8014347,Gundelfingen (Breisgau),48.04402408,7.87418262
Parent8014348,Freiburg(Breisgau) Zähringen,48.02436344,7.86373522
Parent8014349,Freiburg(Breisgau) Herdern,48.00823528,7.85097016
Parent8014350,Freiburg(Breisgau) Hbf,47.99769877,7.84116954
Parent8014404,Freiburg(Breisgau) St. Georgen,47.97549474,7.8030091
Parent8014405,Ebringen,47.96036191,7.76818142
Parent8014406,Schallstadt,47.95594633,7.75388922
Parent8014407,Norsingen,47.93906258,7.7260684
Parent8014408,Bad Krozingen,47.91972314,7.69762774
Parent8014410,Heitersheim,47.87985975,7.6461902
Parent8014411,Buggingen,47.8552543,7.62816102
Parent8014413,Müllheim im Markgräflerland,47.80974293,7.59933408
Parent8014416,Auggen,47.78995079,7.58678462
Parent8014417,Schliengen,47.76159509,7.56893509
Parent8014418,Bad Bellingen,47.73080106,7.55759835
Parent8014419,Rheinweiler,47.70953421,7.53164602
Parent8014420,Kleinkems,47.68613004,7.52466611
Parent8014421,Istein,47.66088821,7.54294683
Parent8014422,Efringen-Kirchen,47.65561813,7.56392249
Parent8014423,Eimeldingen,47.627946,7.59559709
Parent8014424,Haltingen,47.61082818,7.61365323
Parent8014428,Weil am Rhein,47.59396526,7.60841605
Parent8014429,Weil am Rhein-Ost,47.59062716,7.6347816
Parent8014439,Riehen,47.58315657,7.65201129
Parent8014440,Lörrach-Stetten,47.60141614,7.65903611
Parent8014441,Lörrach Hbf,47.61405599,7.66542314
Parent8014443,Lörrach Haagen/Messe,47.63323098,7.68089212
Parent8014444,Lörrach Brombach/Hauingen,47.63761354,7.69521127
Parent8014445,Steinen (D),47.64160232,7.74156434
Parent8014446,Maulburg,47.64437431,7.78065902
Parent8014447,Schopfheim,47.6479692,7.82267323
Parent8014448,Fahrnau,47.66155979,7.83942681
Parent8014449,Hausen-Raitbach,47.67930815,7.84603841
Parent8014450,Zell (Wiesental),47.70562316,7.84914658
Parent8014458,Grenzach,47.55089898,7.65950324
Parent8014459,Wyhlen,47.54632724,7.69091732
Parent8014460,Herten (Baden),47.54950446,7.73965991
Parent8014462,Rheinfelden (Baden),47.5569253,7.78420737
Parent8014463,Beuggen,47.58190833,7.81091428
Parent8014464,Schwörstadt,47.59102096,7.87032885
Parent8014465,Wehr-Brennet,47.58092063,7.91052846
Parent8014466,Bad Säckingen,47.55585831,7.94862601
Parent8014467,Murg (Baden),47.55345146,8.01872155
Parent8014468,Laufenburg (Baden),47.56340555,8.05831031
Parent8014469,Laufenburg (Baden) Ost,47.5661635,8.07368947
Parent8014471,Albbruck,47.59223263,8.13177453
Parent8014474,Waldshut,47.6213708,8.21952197
Parent8014478,Tiengen (Hochrhein),47.63547073,8.27200155
Parent8014479,Lauchringen,47.62909021,8.32219042
Parent8014480,Griessen (Baden),47.62843032,8.39600499
Parent8014481,Erzingen (Baden),47.65953898,8.430123
Parent8014490,Thayngen,47.74549966,8.70429781
Parent8014491,Bietingen,47.74401972,8.73891888
Parent8014492,Gottmadingen,47.73739872,8.77542642
Parent8014502,Hausach,48.28492632,8.18166696
Parent8014511,Hornberg (Schwarzw),48.21189328,8.2329428
Parent8014513,Triberg,48.14000282,8.23680555
Parent8014518,St Georgen(Schwarzw),48.12381493,8.34195336
Parent8014521,Villingen (Schwarzw),48.05802163,8.4652651
Parent8014526,Brigachtal-Klengen,48.00736383,8.46577714
Parent8014529,Donaueschingen,47.94789625,8.49879022
Parent8014533,Geisingen,47.92134256,8.65394724
Parent8014534,Immendingen,47.93600535,8.72954047
Parent8014545,Weizen,47.7688349,8.47651201
Parent8014546,Stühlingen,47.74312569,8.44613098
Parent8014547,Eberfingen,47.72059478,8.42988944
Parent8014554,Engen,47.85634531,8.77278537
Parent8014555,Welschingen-Neuhausen,47.83403228,8.76921906
Parent8014556,Mühlhausen (b Engen),47.81362806,8.80425335
Parent8014558,Singen (Hohentwiel),47.75887764,8.84127293
Parent8014570,Böhringen-Rickelshausen,47.74894867,8.92576846
Parent8014571,Radolfzell,47.73587022,8.96898641
Parent8014580,Markelfingen,47.7390178,9.00340985
Parent8014581,Allensbach,47.71446642,9.06885212
Parent8014582,Hegne,47.70603423,9.0995745
Parent8014583,Reichenau (Baden),47.68934715,9.12595802
Parent8014584,Konstanz-Petershausen,47.67395524,9.17388314
Parent8014586,Konstanz,47.65875241,9.17731471
Parent8014597,Ludwigshafen (Bodensee),47.81561274,9.05305075
Parent8014599,Sipplingen,47.79558749,9.0955231
Parent8014601,Überlingen Therme,47.76926962,9.14564011
Parent8014607,Uhldingen-Mühlhofen,47.73699999,9.24841636
Parent8014616,Salem,47.75779666,9.29726675
Parent8014624,Bermatingen-Ahausen,47.73048686,9.34515594
Parent8014625,Markdorf (Baden),47.71665434,9.38876914
Parent8021703,Schopfheim-Schlattholz,47.65380282,7.83379437
Parent8023179,Leipzig Hbf,51.34547346,12.38206347
Parent8029012,Tuttlingen Zentrum,47.9856149,8.80943663
Parent8029034,Stuttgart Hbf,48.78408363,9.1816356
Parent8029103,Ulm Hbf,48.39940089,9.98260944
Parent8029112,Erbach (Württ),48.32589848,9.89495184
Parent8029115,Laupheim West,48.23111128,9.84824843
Parent8029126,Biberach (Riss),48.10184519,9.7931278
Parent8029148,Bad Schussenried,47.99403183,9.66849554
Parent8029149,Aulendorf,47.95305254,9.6440434
Parent8029153,Ravensburg,47.78448249,9.60609856
Parent8029156,Meckenbeuren,47.69975906,9.55838903
Parent8029159,Löwental,47.66143274,9.49938769
Parent8029162,Friedrichshafen Stadt,47.65322191,9.47390248
Parent8029163,Friedrichshafen-Hafen,47.65120682,9.48282275
Parent8029165,Friedrichshafen-Manzell,47.66431862,9.4291574
Parent8029166,Friedrichshafen-Fischbach,47.67247932,9.41738048
Parent8029167,Eriskirch,47.62840005,9.52666952
Parent8029168,Langenargen,47.59948992,9.54483346
Parent8029170,Kressbronn,47.59423787,9.59885814
Parent8029184,Herbertingen Ort,48.05357237,9.43339745
Parent8029186,Bad Saulgau,48.01359587,9.5010855
Parent8029189,Altshausen,47.93070893,9.55148099
Parent8029227,Ulm-Söflingen,48.40272882,9.95884901
Parent8029228,Blaustein,48.41459546,9.91932313
Parent8029230,Herrlingen,48.4177316,9.89772763
Parent8029232,Gerhausen,48.39972296,9.80622524
Parent8029233,Blaubeuren,48.40381422,9.79197796
Parent8029234,Schelklingen,48.37170148,9.73526731
Parent8029235,Schmiechen,48.36271964,9.72075952
Parent8029236,Allmendingen (D),48.32773211,9.72238547
Parent8029238,Ehingen (Donau),48.28567949,9.7243438
Parent8029240,Rottenacker,48.23484511,9.69436702
Parent8029241,Munderkingen,48.23787266,9.64566935
Parent8029243,Rechtenstein,48.2400086,9.55131031
Parent8029246,Riedlingen,48.14957526,9.48497871
Parent8029249,Herbertingen,48.06362319,9.41380519
Parent8029250,Mengen,48.05351233,9.33662194
Parent8029253,Sigmaringendorf,48.06889998,9.26072328
Parent8029254,Sigmaringen,48.08698345,9.22185318
Parent8029258,Hausen im Tal,48.0804062,9.02757453
Parent8029259,Beuron,48.04879244,8.97188797
Parent8029260,Fridingen (b Tuttlingen),48.03182492,8.93606316
Parent8029261,Mühlheim (b Tuttlingen),48.02921172,8.88564072
Parent8029262,Stetten(Donau),48.02281334,8.87235464
Parent8029263,Nendingen(b Tuttlingen),48.00942523,8.85391222
Parent8029299,Nürtingen,48.62806596,9.34280235
Parent8029309,Reutlingen Hbf (D),48.49607835,9.20911507
Parent8029318,Tübingen Hbf,48.51564168,9.05539536
Parent8029321,Kiebingen,48.47937182,8.97374748
Parent8029322,Rottenburg (Neckar),48.472428,8.93555112
Parent8029323,Bad Niedernau,48.46076549,8.89653728
Parent8029324,Bieringen(b Horb),48.4490288,8.86091908
Parent8029325,Eyach,48.44628786,8.78309803
Parent8029326,Mühlen(b Horb),48.44994043,8.72680061
Parent8029335,Dusslingen,48.4524071,9.05844065
Parent8029338,Mössingen,48.40403488,9.04639424
Parent8029339,Bad Sebastiansweiler-Belsen,48.39556575,9.03002693
Parent8029340,Bodelshausen,48.38336654,8.99059988
Parent8029341,Hechingen,48.35964576,8.9685103
Parent8029343,Bisingen,48.3127685,8.92103434
Parent8029344,Engstlatt,48.29711923,8.87522026
Parent8029345,Balingen (Württ),48.27847007,8.85030998
Parent8029350,Albstadt-Ebingen,48.21028896,9.02696368
Parent8029351,Strassberg-Winterlingen,48.1787491,9.08771674
Parent8029353,Storzingen,48.1348832,9.12708092
Parent8029383,Böblingen,48.6877605,9.0041285
Parent8029399,Horb,48.44147299,8.68898154
Parent8029411,Rottweil,48.16530567,8.63929572
Parent8029429,Tuttlingen,47.98057612,8.79854007
Parent8029433,Deisslingen Mitte,48.10837172,8.61158269
Parent8029434,Trossingen Bahnhof,48.08766153,8.58515426
Parent8029436,Schwenningen (Neckar),48.05976881,8.5358637
Parent8029441,Korntal,48.82641611,9.12117
Parent8029549,Aalen,48.84101563,10.09627328
Parent8029697,Unterkochen,48.81500672,10.1264926
Parent8029698,Oberkochen,48.78236118,10.10765493
Parent8029699,Königsbronn,48.73951758,10.11613503
Parent8029700,Itzelberg,48.73068376,10.13630221
Parent8029701,Heidenheim-Schnaitheim,48.70828121,10.15876009
Parent8029702,Heidenheim,48.68016909,10.15664006
Parent8029705,Herbrechtingen,48.62563158,10.17033039
Parent8029706,Giengen (Brenz),48.62002019,10.23699437
Parent8029707,Hermaringen,48.59458594,10.25832935
Parent8029708,Bergenweiler,48.5762953,10.27288206
Parent8029709,Sontheim-Brenz,48.55932389,10.28486559
Parent8029710,Niederstotzingen,48.53260394,10.23646436
Parent8029711,Rammingen (Württ),48.51238661,10.19085689
Parent8029712,Langenau (Württ),48.493334,10.12598955
Parent8029715,Thalfingen(b Ulm),48.43298029,10.04785408
Parent8030446,Neuenburg(Baden),47.81148041,7.56275468
Parent8035252,Heidenheim-Voithwerk,48.66947988,10.15607413
Parent8038379,Überlingen,47.76910056,9.16285183
Parent8042800,Böblingen Danziger Str.,48.67895911,8.99720249
Parent8042801,Böblingen Süd,48.67723305,9.01050654
Parent8042802,Böblingen Heusteigstr.,48.6756315,9.02576892
Parent8042803,Böblingen Zimmerschlag,48.67045873,9.03522818
Parent8042804,Holzgerlingen-Nord,48.64455726,9.00853923
Parent8042805,Holzgerlingen Bahnhof,48.63752329,9.00694921
Parent8042806,Holzgerlingen-Buch,48.62669441,9.02477179
Parent8042807,Weil im Schönbuch Troppel,48.62021615,9.04272013
Parent8042808,Weil im Schönbuch Röte,48.6209525,9.04989767
Parent8042809,Weil im Schönbuch Untere Halde,48.62044181,9.06279748
Parent8042810,Dettenhausen,48.60670474,9.09343901
Parent8049101,Münchingen,48.85523852,9.0962148
Parent8049102,Schwieberdingen,48.87058006,9.07139435
Parent8049103,Hemmingen,48.86778513,9.0316978
Parent8049104,Heimerdingen,48.85147334,8.98543456
Parent8051202,Frickenhausen,48.59537018,9.35801083
Parent8051203,Linsenhofen,48.57986719,9.37153047
Parent8051204,Neuffen,48.55855693,9.37408169
Parent8051228,Nürtingen-Rossdorf,48.60857577,9.34571289
Parent8051247,Nürtingen Vorstadt,48.62033492,9.34007147
Parent8060978,Weil am Rhein Gartenstadt,47.5887066,7.61628529
Parent8060979,Weil am Rhein Pfädlistrasse,47.58901559,7.62649015
Parent8062343,Tuttlingen Nord,47.99260706,8.82373781
Parent8063365,Singen (Htw)-Landesgartenschau,47.76094291,8.82711548
Parent8064617,Überlingen-Nussdorf,47.75486158,9.18814839
Parent8064618,Friedrichshafen Landratsamt,47.65714899,9.45198359
Parent8068634,Biberach (Riss) Süd,48.08701946,9.80323385
Parent8069220,Lörrach Dammstrasse,47.59771507,7.65522726
Parent8069221,Lörrach Museum/Burghof,47.60774553,7.6611741
Parent8069224,Baden-Baden Rebland,48.73384184,8.14656978
Parent8069228,Sinzheim Nord,48.77081744,8.16979123
Parent8069229,Sinzheim,48.75988099,8.15842755
Parent8071992,Donaueschingen Grüningen,47.98305348,8.4718228
Parent8071993,Brigachtal Kirchdorf,48.01434102,8.46780733
Parent8071996,Villingen-Sch. Hammerstatt,48.06017707,8.54692196
Parent8072023,Villingen-Sch. Marbach Ost,48.03372315,8.47599098
Parent8072025,Villingen-Sch. Eisstadion,48.05277375,8.52855141
Parent8072031,Immendingen Zimmern,47.93287571,8.71405352
Parent8080100,Wutöschingen,47.66208616,8.36365666
Parent8080251,Konstanz-Fürstenberg,47.67748157,9.16284285
Parent8080295,Donaueschingen Mitte/Siedl.,47.95254114,8.48895367
Parent8080296,Donaueschingen-Aufen,47.96335755,8.47562267
Parent8080297,Villingen-Sch. Marbach West,48.03128427,8.4691548
Parent8080306,Villingen-Sch. Zollhaus,48.04088897,8.50599471
Parent8083840,Schopfheim West,47.64554237,7.80171553
Parent8083846,Lörrach Schwarzwaldstrasse,47.62442238,7.67248389
Parent8084736,Friedrichshafen-Kluftern,47.68814983,9.40951124
Parent8085022,Lauchringen West,47.63277696,8.30810484
Parent8087021,Riehen Niederholz,47.56947285,7.63344311
Parent8088502,Korntal-Gymnasium,48.83105838,9.11234855
Parent8088503,Münchingen Rührberg,48.84979457,9.09585548
Parent8088504,Frickenhausen-Kelterstrasse,48.59205488,9.3644787
Parent8088575,Eggingen,47.69373105,8.39665178
Parent8099982,Konstanz-Wollmatingen,47.68245311,9.14732894
Parent8099985,Singen (Htw) Industriegebiet,47.75945133,8.87213006
Parent8101003,Wien Hbf,48.18509815,16.37711408
Parent8101230,Bludenz,47.15472623,9.8145616
Parent8101231,Nüziders,47.17075312,9.79440341
Parent8101232,Ludesch,47.18030344,9.77125382
Parent8101233,Nenzing,47.19156132,9.70825497
Parent8101234,Schlins-Beschling,47.19489427,9.69052223
Parent8101235,Frastanz,47.22006776,9.63918351
Parent8101236,Feldkirch,47.2409786,9.6041043
Parent8101237,Forst (FL) Hilti,47.18090791,9.52070471
Parent8101238,Altenstadt (Feldkirch),47.25609539,9.6155668
Parent8101239,Gisingen (Feldkirch),47.25569299,9.59786101
Parent8101240,Tisis (Feldkirch),47.2272484,9.57569059
Parent8101242,Nendeln,47.20020458,9.54162647
Parent8101243,Schaan-Vaduz,47.16829199,9.50779592
Parent8102335,Bregenz Riedenburg,47.49291029,9.72131648
Parent8102336,Bregenz,47.50300332,9.73962414
Parent8102338,Bregenz Hafen,47.50611641,9.74829289
Parent8102339,Lochau-Hörbranz,47.5296255,9.74219333
Parent8102351,Hard-Fussach,47.47985871,9.68813271
Parent8102352,Lustenau,47.45034411,9.66711213
Parent8105481,Lauterach Unterfeld,47.48077546,9.71474979
Parent8301003,Domodossola (I),46.11529118,8.29623809
Parent8301030,Gallarate,45.65975272,8.79854007
Parent8301031,Busto Arsizio,45.61589917,8.86579693
Parent8301039,Rho Fiera Milano,45.52112836,9.08857014
Parent8301113,Luino (I),45.9967037,8.73740073
Parent8301116,Porto Valtravaglia,45.95814212,8.67372814
Parent8301117,Calde,45.94568206,8.66346938
Parent8301118,Laveno-Mombello,45.90314063,8.62452741
Parent8301140,Sangiano,45.87436544,8.63081562
Parent8301141,Besozzo,45.84256535,8.66326277
Parent8301142,Travedona-Biandronno,45.79938123,8.70052489
Parent8301143,Ternate-Varano Borghi,45.78236258,8.69994098
Parent8301144,Mornago-Cimbro,45.72994608,8.73420273
Parent8301145,Besnate,45.69615609,8.76057726
Parent8301203,Arcisate,45.85810168,8.86259893
Parent8301204,Induno Olona,45.84671422,8.83784136
Parent8301205,Varese,45.81621312,8.8332869
Parent8301206,Cantello Gaggiolo,45.83782788,8.90741588
Parent8301307,Como S. Giovanni,45.80896877,9.07271488
Parent8301312,Cucciago,45.73831045,9.08344974
Parent8301313,Cantù-Cermenate,45.71342058,9.09837076
Parent8301315,Carimate,45.69446198,9.10754256
Parent8301316,Camnago-Lentate,45.66620035,9.13328828
Parent8301318,Seregno,45.64451904,9.20212618
Parent8301320,Desio,45.61783442,9.21791856
Parent8301321,Lissone-Muggiò,45.60603964,9.23533689
Parent8301322,Monza,45.57482211,9.27368597
Parent8301325,Sesto S. Giovanni,45.5410328,9.23935236
Parent8301326,Milano Greco Pirelli,45.51289519,9.21449598
Parent8301645,Milano Porta Garibaldi,45.4844349,9.18729499
Parent8301700,Milano Centrale,45.48713673,9.20482112
Parent8301701,Milano Lambrate,45.48507101,9.23722335
Parent8301807,Voghera,44.99790705,9.00873686
Parent8301820,Milano Rogoredo,45.43366813,9.239011
Parent8304700,Genova P. Principe,44.4175049,8.92207639
Parent8304718,S. Margherita Ligure-Portofino,44.33662295,9.21682261
Parent8304720,Rapallo,44.35123838,9.23155498
Parent8304725,Sestri Levante,44.27616956,9.39754568
Parent8305000,Piacenza,45.05209812,9.70635953
Parent8319371,Ferno-Lonate Pozzolo,45.60837115,8.75872673
Parent8320005,Malpensa Aeroporto T2,45.65027768,8.71972189
Parent8325432,Como Camerlata,45.78449254,9.07951512
Parent8325631,Busto Arsizio Nord,45.60543004,8.85221441
Parent8325635,Malpensa Aeroporto T1,45.62713276,8.71127772
Parent8500010,Basel SBB,47.54741261,7.58956041
Parent8500016,Basel St. Johann,47.57030319,7.57252835
Parent8500020,Muttenz,47.53359219,7.647897
Parent8500021,Pratteln,47.52266791,7.69081851
Parent8500022,Frenkendorf-Füllinsdorf,47.50146794,7.71911544
Parent8500023,Liestal,47.48446052,7.73136846
Parent8500024,Lausen,47.47034419,7.75976421
Parent8500025,Itingen,47.46727756,7.7872257
Parent8500026,Sissach,47.46275319,7.81202819
Parent8500027,Gelterkinden,47.46589296,7.84766436
Parent8500028,Tecknau,47.44575754,7.88762142
Parent8500031,Diepflingen,47.44956047,7.83772001
Parent8500032,Sommerau,47.43901971,7.8514822
Parent8500033,Rümlingen,47.42537738,7.85053897
Parent8500034,Buckten,47.40898975,7.8477991
Parent8500035,Läufelfingen,47.39213484,7.85623428
Parent8500037,Trimbach,47.36605139,7.90428517
Parent8500038,Basel St. Jakob,47.54261014,7.61952821
Parent8500090,Basel Bad Bf,47.56730907,7.60691586
Parent8500100,Tavannes,47.21984201,7.20164092
Parent8500101,Reconvilier,47.23523931,7.22741359
Parent8500102,Malleray-Bévilard,47.2387159,7.27594956
Parent8500103,Sorvilier,47.2393563,7.30579159
Parent8500104,Court,47.24060048,7.34211048
Parent8500105,Moutier,47.28067307,7.38104347
Parent8500109,Delémont,47.3620112,7.35006057
Parent8500113,Laufen,47.4193481,7.50263942
Parent8500114,Zwingen,47.43380019,7.53046025
Parent8500115,Grellingen,47.44129208,7.59198586
Parent8500116,Duggingen,47.4534421,7.60345735
Parent8500117,Aesch BL,47.46774515,7.60307107
Parent8500118,Dornach-Arlesheim,47.4886188,7.61111998
Parent8500119,Münchenstein,47.51339777,7.61759683
Parent8500120,Courtételle,47.34282822,7.3179458
Parent8500121,Courfaivre,47.3350849,7.29116702
Parent8500122,Bassecourt,47.33668601,7.24684415
Parent8500123,Glovelier,47.33521274,7.20931253
Parent8500124,St-Ursanne,47.36770024,7.16595984
Parent8500125,Courgenay,47.40522644,7.12420614
Parent8500126,Porrentruy,47.42091626,7.0800809
Parent8500127,Courtemaîche,47.45587177,7.05537723
Parent8500128,Boncourt,47.49263108,7.01655204
Parent8500135,Pontenet,47.23885008,7.25415643
Parent8500136,Basel Dreispitz,47.53743729,7.60959284
Parent8500141,Courchavon,47.43977313,7.05764996
Parent8500144,Buix,47.47933051,7.02996389
Parent8500159,Grenchen Nord,47.19169562,7.38962238
Parent8500162,Tramelan-Dessous,47.22248379,7.11274364
Parent8500164,Tramelan-Chalet,47.22353314,7.09230697
Parent8500165,Le Pied-d'Or,47.22210553,7.05622164
Parent8500167,Les Breuleux-Eglise,47.21300818,7.00242154
Parent8500169,Muriaux,47.24421697,6.98523677
Parent8500170,Tramelan,47.22282544,7.10429948
Parent8500171,Les Reussilles,47.22433844,7.08313517
Parent8500172,La Chaux-des-Breuleux,47.22049484,7.02541841
Parent8500173,Les Breuleux,47.21070157,7.00554768
Parent8500174,Le Noirmont,47.2232586,6.95647271
Parent8500175,Le Creux-des-Biches,47.20346375,6.94066236
Parent8500176,Le Boéchet,47.19424723,6.92211215
Parent8500177,Les Bois,47.1769024,6.90618502
Parent8500178,La Ferrière,47.14269677,6.89405777
Parent8500179,La Cibourg,47.12212615,6.88366426
Parent8500180,La Large-Journée,47.16128049,6.89655508
Parent8500181,La Chaux-d'Abel,47.15280805,6.89877392
Parent8500184,La Chaux-de-Fonds-Est,47.10340034,6.83695186
Parent8500186,Alle,47.42422871,7.12824856
Parent8500187,Vendlincourt,47.45215433,7.15703957
Parent8500188,Bonfol,47.47442465,7.15488361
Parent8500190,Les Emibois,47.2318967,6.98485049
Parent8500191,Saignelégier,47.25465647,6.99419297
Parent8500192,Le Bémont JU,47.26322849,7.01408167
Parent8500194,Pré-Petitjean,47.27705297,7.0584315
Parent8500195,La Combe,47.28432949,7.09951146
Parent8500196,Bollement,47.29692391,7.12386478
Parent8500199,Combe-Tabeillon,47.31355954,7.15786602
Parent8500200,Pieterlen,47.17144319,7.34019707
Parent8500201,Lengnau BE,47.1794303,7.36655364
Parent8500202,Grenchen Süd,47.1887776,7.39818332
Parent8500203,Bettlach,47.19494921,7.4283757
Parent8500204,Selzach,47.20062572,7.4566367
Parent8500205,Bellach,47.20887695,7.5078227
Parent8500206,Solothurn West,47.20671662,7.53195145
Parent8500207,Solothurn,47.20419002,7.54268632
Parent8500208,Luterbach-Attisholz,47.2171513,7.58352373
Parent8500209,Deitingen,47.21822516,7.61891735
Parent8500210,Wangen an der Aare,47.2319577,7.65623337
Parent8500211,Niederbipp,47.27040328,7.69481601
Parent8500212,Oensingen,47.28503637,7.70987178
Parent8500213,Oberbuchsiten,47.30524543,7.77172078
Parent8500214,Egerkingen,47.31486288,7.79896669
Parent8500215,Hägendorf,47.33026909,7.84381957
Parent8500216,Wangen bei Olten,47.34140383,7.86836154
Parent8500217,Olten Hammer,47.34855585,7.89772747
Parent8500218,Olten,47.3519337,7.90769877
Parent8500220,Dotzigen,47.11867249,7.33775365
Parent8500221,Büren an der Aare,47.13815676,7.37124285
Parent8500261,Langendorf,47.21785907,7.5135809
Parent8500262,Lommiswil,47.21856684,7.46951854
Parent8500263,Im Holz,47.23092071,7.47479165
Parent8500264,Oberdorf SO,47.23588585,7.4936922
Parent8500272,Solothurn Sternen,47.21230034,7.5453633
Parent8500273,St. Katharinen,47.21610792,7.54979199
Parent8500274,Feldbrunnen,47.22065957,7.55585562
Parent8500275,Bei den Weihern,47.22838917,7.56659049
Parent8500280,Solothurn Baseltor,47.20998759,7.5418958
Parent8500283,Riedholz,47.23103051,7.57268107
Parent8500285,Flumenthal,47.23916113,7.59668405
Parent8500286,Attiswil,47.24640017,7.6138778
Parent8500287,Wiedlisbach,47.25288214,7.64610037
Parent8500288,Oberbipp,47.25973522,7.66101241
Parent8500289,Buchli,47.26363084,7.67838582
Parent8500292,Klus,47.3042647,7.69379193
Parent8500293,Thalbrücke,47.30842505,7.68827628
Parent8500294,Balsthal,47.31319412,7.69467228
Parent8500300,Kaiseraugst,47.53849859,7.72413702
Parent8500301,Rheinfelden,47.55121426,7.79216644
Parent8500302,Möhlin,47.56185982,7.83386623
Parent8500303,Mumpf,47.54762483,7.90962116
Parent8500304,Eiken,47.53304634,7.9897958
Parent8500305,Frick,47.50734824,8.01308912
Parent8500309,Brugg AG,47.48086046,8.208841
Parent8500313,Rheinfelden Augarten,47.54587854,7.76802871
Parent8500320,Stein-Säckingen,47.54160957,7.94884161
Parent8500322,Laufenburg,47.55976846,8.06129271
Parent8500329,Koblenz,47.60033795,8.22704985
Parent8501000,Zimeysa,46.22123848,6.06598175
Parent8501001,La Plaine,46.17866635,5.99999151
Parent8501002,Russin,46.18839363,6.01803867
Parent8501003,Satigny,46.21422726,6.03766686
Parent8501006,Meyrin,46.22233235,6.07690527
Parent8501007,Vernier,46.2207164,6.09389241
Parent8501008,Genève,46.21021156,6.14245533
Parent8501011,Les Tuileries,46.24994531,6.14733319
Parent8501012,Creux-de-Genthod,46.26376521,6.16131097
Parent8501013,Pont-Céard,46.2868196,6.16277523
Parent8501014,Mies,46.29848902,6.16765308
Parent8501015,Tannay,46.3076428,6.18111882
Parent8501020,Chambésy,46.24094342,6.14730624
Parent8501021,Genthod-Bellevue,46.25674078,6.15396275
Parent8501022,Versoix,46.27972984,6.16573967
Parent8501023,Coppet,46.31739687,6.18782924
Parent8501026,Genève-Aéroport,46.23253659,6.11198448
Parent8501030,Nyon,46.38441838,6.23596996
Parent8501031,Gland,46.41998839,6.26913576
Parent8501033,Rolle,46.46274451,6.3364016
Parent8501035,Allaman,46.47575596,6.3996969
Parent8501036,St-Prex,46.48231929,6.45590449
Parent8501037,Morges,46.51109948,6.49396611
Parent8501042,Etoy,46.47517444,6.42713145
Parent8501045,Denges-Echandens,46.52912417,6.54050782
Parent8501047,Morges-St-Jean,46.51819633,6.50804271
Parent8501048,Lonay-Préverenges,46.52313514,6.51954114
Parent8501053,La Vuarpillière,46.39892299,6.21724907
Parent8501054,La Gottaz,46.50654909,6.48446193
Parent8501055,Les Pralies,46.45117823,6.12686956
Parent8501056,Sus-Châtel,46.43848901,6.20585843
Parent8501057,La Chèvrerie-Monterêt,46.4484797,6.18350834
Parent8501058,La Joy-Clinique,46.44635048,6.21676398
Parent8501059,Les Plantaz,46.39116001,6.22902598
Parent8501060,La Cure,46.46515153,6.07357252
Parent8501061,La Givrine,46.45460072,6.11143651
Parent8501062,St-Cergue,46.44860967,6.16035876
Parent8501063,Arzier,46.45864183,6.21165256
Parent8501064,Bassins,46.46057254,6.22230658
Parent8501065,Le Muids,46.45429747,6.21543447
Parent8501066,Genolier,46.43624797,6.21457209
Parent8501067,Givrins,46.42884941,6.20522062
Parent8501068,Trélex,46.41372103,6.20642437
Parent8501069,L'Asse,46.40182221,6.21175138
Parent8501080,Le Marais,46.52746782,6.46258795
Parent8501081,Chigny,46.51602039,6.47225383
Parent8501082,Chardonney-Château,46.53469849,6.43255727
Parent8501083,Reverolle,46.5404329,6.43096725
Parent8501084,Le Manège,46.55912114,6.432171
Parent8501085,Ballens-Froideville,46.54965736,6.39022866
Parent8501087,Mauraz,46.58492196,6.4297186
Parent8501088,Tuilerie,46.59279932,6.41422266
Parent8501089,Villars-Bozon,46.61045749,6.40235591
Parent8501090,Prélionne,46.50946732,6.4802668
Parent8501091,Vufflens-le-Château,46.52481016,6.47317909
Parent8501092,Bussy-Chardonney,46.52678179,6.44650811
Parent8501093,Yens,46.51995803,6.42732009
Parent8501094,Apples,46.55088058,6.4235831
Parent8501095,Ballens,46.55225821,6.37446322
Parent8501096,Bière,46.53744219,6.33691364
Parent8501097,Pampigny-Sévery,46.5769817,6.432171
Parent8501098,Montricher,46.59633018,6.39304937
Parent8501099,L'Isle,46.61726987,6.41117737
Parent8501100,Le Pont,46.66866827,6.32472351
Parent8501103,Vallorbe,46.71240537,6.37056453
Parent8501104,Le Day,46.72003016,6.39902316
Parent8501105,Bretonnières,46.71505384,6.47473318
Parent8501106,Croy-Romainmôtier,46.69670894,6.47811982
Parent8501107,Arnex,46.69807671,6.51890334
Parent8501108,La Sarraz,46.65878586,6.51735824
Parent8501110,Ependes VD,46.74641299,6.60766587
Parent8501111,Essert-Pittet,46.72767235,6.58065353
Parent8501112,Chavornay,46.71008322,6.56816695
Parent8501113,Bavois,46.68768205,6.55933651
Parent8501114,Eclépens,46.65718896,6.55241948
Parent8501115,Cossonay-Penthalaz,46.606008,6.52369136
Parent8501116,Vufflens-la-Ville,46.57624689,6.53077008
Parent8501117,Bussigny,46.54758771,6.55182659
Parent8501118,Renens VD,46.53704053,6.57893775
Parent8501120,Lausanne,46.5167931,6.62909069
Parent8501121,Pully,46.51092637,6.65947171
Parent8501122,Lutry,46.50378528,6.69060732
Parent8501123,Villette VD,46.495425,6.70737887
Parent8501124,Cully,46.4885602,6.72715079
Parent8501125,Epesses,46.48932713,6.74516201
Parent8501126,Rivaz,46.47420935,6.78459805
Parent8501127,St-Saphorin,46.47259465,6.79703073
Parent8501151,Les Charbonnières,46.66429754,6.31704291
Parent8501152,Le Séchey,46.65847758,6.3060116
Parent8501153,Le Lieu,46.64689744,6.28340999
Parent8501154,Les Esserts-de-Rive,46.6319839,6.2603682
Parent8501155,Le Rocheray,46.62445772,6.25026215
Parent8501156,Le Solliat-La Golisse,46.6144068,6.23902423
Parent8501157,Le Sentier-L'Orient,46.605792,6.23142448
Parent8501159,Le Brassus,46.58554552,6.21394327
Parent8501160,Lausanne-Chauderon,46.52322786,6.62606337
Parent8501162,Union-Prilly,46.53471703,6.60984878
Parent8501163,Prilly-Chasseur,46.53964816,6.60743231
Parent8501164,Cery-Fleur-de-Lys,46.54457885,6.60500686
Parent8501165,Jouxtens-Mézery,46.54834144,6.60169207
Parent8501166,Romanel-sur-Lausanne,46.5624689,6.60317429
Parent8501168,Vernand-Camarès,46.57094238,6.60480025
Parent8501169,Cheseaux,46.58434778,6.60595907
Parent8501170,Bel-Air LEB,46.57867976,6.60552788
Parent8501171,Etagnières,46.60267527,6.61462781
Parent8501172,Assens,46.61314799,6.62052975
Parent8501173,Echallens,46.63950903,6.63254022
Parent8501174,Sur Roche,46.64045268,6.63891826
Parent8501175,Sugnens,46.65485212,6.66575992
Parent8501176,Fey,46.67432071,6.68508268
Parent8501177,Bercher,46.69288271,6.70365086
Parent8501178,Grésaley,46.6432527,6.64217016
Parent8501179,Pont-de-Drapel,46.31985994,6.98652136
Parent8501181,Lausanne-Flon,46.52079869,6.63033935
Parent8501191,Orbe,46.72440869,6.53014126
Parent8501194,Les Granges (Orbe),46.7209724,6.54146902
Parent8501198,Château-d'Oex La Palaz,46.47589825,7.14383433
Parent8501199,La Roulaz,46.33131762,7.00147831
Parent8501200,Vevey,46.4630044,6.84344668
Parent8501201,La Tour-de-Peilz,46.45545476,6.85953551
Parent8501202,Burier,46.44788551,6.87712452
Parent8501203,Clarens,46.44273558,6.89578253
Parent8501229,Monthey-En Place,46.25941154,6.94590853
Parent8501230,Glion-Alpes,46.43380253,6.92575033
Parent8501262,Hauteville,46.46625909,6.86089197
Parent8501263,Château-d'Hauteville,46.46846795,6.86529371
Parent8501264,St-Légier-Village,46.47101701,6.87656757
Parent8501265,La Chiésaz,46.46950739,6.88212814
Parent8501266,Château-de-Blonay,46.4683504,6.8917491
Parent8501280,St-Légier-Gare,46.47052825,6.87193226
Parent8501281,Blonay,46.46568984,6.89594423
Parent8501282,Prélaz-sur-Blonay,46.46882062,6.89792951
Parent8501283,Tusinge,46.47385053,6.89624966
Parent8501284,Les Chevalleyres,46.47558893,6.89811815
Parent8501285,Fayaux,46.46997761,6.90763131
Parent8501286,Ondallaz-L'Alliaz,46.47315763,6.91396443
Parent8501287,Lally,46.47920784,6.91402732
Parent8501288,Les Pléiades,46.48335846,6.90993998
Parent8501300,Montreux,46.43588271,6.91044304
Parent8501301,Territet,46.42638507,6.92270504
Parent8501302,Veytaux-Chillon,46.41762274,6.92786137
Parent8501303,Villeneuve VD,46.39837163,6.92699899
Parent8501304,Roche VD,46.35869591,6.92705289
Parent8501306,Chamby-Musée,46.45382093,6.91240136
Parent8501308,Glion-Collège,46.43478072,6.92873274
Parent8501357,Haut-de-Caux,46.43437211,6.9479477
Parent8501360,Montreux-Les Planches,46.43310293,6.91755769
Parent8501361,Toveyre,46.42790207,6.92847223
Parent8501362,Valmont,46.42855221,6.92929868
Parent8501363,Le Tremblex,46.43603748,6.93274821
Parent8501364,Les Echets,46.43218043,6.94489343
Parent8501365,Crêt-d'y-Bau,46.43515218,6.95536779
Parent8501366,Paccot,46.43775851,6.96268905
Parent8501367,Jaman,46.44134279,6.9767926
Parent8501368,La Perche,46.43640274,6.97510377
Parent8501369,Rochers-de-Naye,46.43167894,6.97902043
Parent8501370,Glion,46.431778,6.92471727
Parent8501371,Caux,46.43114028,6.93852437
Parent8501374,Fontanivent,46.45273168,6.90233125
Parent8501375,Chernex,46.4459172,6.91008371
Parent8501376,Chamby,46.4491791,6.91349731
Parent8501377,Les Avants,46.45380855,6.94332138
Parent8501378,Allières,46.46982293,7.00789228
Parent8501379,Les Sciernes,46.49146084,7.0342219
Parent8501380,Montreux-Collège,46.43609939,6.91270679
Parent8501381,Vuarennes,46.43912044,6.91097304
Parent8501382,Châtelard VD,46.44677757,6.90113649
Parent8501383,Planchamp,46.45117823,6.90100174
Parent8501384,Sonzier,46.43905235,6.92121384
Parent8501385,Sendy-Sollard,46.4466414,6.9290741
Parent8501386,Jor,46.4546688,6.96512349
Parent8501387,Les Cases,46.45591891,6.99771437
Parent8501388,Les Combes,46.47746956,7.17182584
Parent8501390,Belmont-sur-Montreux,46.44204229,6.90612214
Parent8501391,La Tine,46.46716863,7.04657374
Parent8501392,Rossinière,46.46481121,7.08324297
Parent8501393,La Chaudanne-Les Moulins,46.4660549,7.09673566
Parent8501394,Château-d'Oex,46.47466716,7.13141063
Parent8501395,Les Granges-Gérignoz,46.47416605,7.15494649
Parent8501396,Flendruz,46.48209042,7.18607312
Parent8501397,Rougemont,46.48862205,7.20896219
Parent8501398,Saanen,46.48857257,7.26027396
Parent8501399,Gstaad,46.47479707,7.28441169
Parent8501400,Aigle,46.3168571,6.96368618
Parent8501402,Bex,46.25146722,7.00066982
Parent8501403,St-Maurice,46.21637174,7.00204425
Parent8501404,Evionnaz,46.16925462,7.02551723
Parent8501405,Vernayaz,46.13854489,7.03836313
Parent8501420,Massongex,46.24120436,6.98565898
Parent8501421,Monthey,46.25565381,6.95522405
Parent8501422,Collombey,46.27119235,6.94875618
Parent8501423,Vionnaz,46.31503297,6.91620124
Parent8501424,Vouvry,46.33649047,6.89845053
Parent8501425,Les Evouettes,46.36286811,6.87946913
Parent8501426,Bouveret,46.38581883,6.8532473
Parent8501428,St-Gingolph (Suisse),46.39219472,6.80593304
Parent8501446,Villars-sur-Ollon Golf,46.30911967,7.0754905
Parent8501447,Roches Grises,46.29375948,7.06109949
Parent8501448,Champéry,46.17495286,6.87149209
Parent8501452,St-Triphon-Gare,46.27822113,6.97372037
Parent8501453,La Cour,46.19423912,6.8866826
Parent8501454,Fayot,46.21205782,6.89951054
Parent8501456,Chemex,46.24362115,6.93005326
Parent8501457,Monthey-Hôpital,46.25187719,6.9407522
Parent8501458,Villy,46.2869003,6.99439958
Parent8501460,Croix-du-Nant,46.23966974,6.92744815
Parent8501461,Ollon VD,46.29683186,6.99309703
Parent8501462,Collombey-Village,46.26931703,6.94596242
Parent8501463,Monthey-Ville,46.25410096,6.94749854
Parent8501464,Troistorrents,46.2282923,6.91580598
Parent8501465,Val-d'Illiez,46.20360927,6.89322233
Parent8501466,Champéry-Village,46.18147773,6.8748428
Parent8501468,Aigle-Château,46.3168695,6.97892161
Parent8501470,Verschiez,46.30817646,6.98366472
Parent8501471,Plambuit,46.32734771,7.02397212
Parent8501472,Exergillod,46.33711068,7.03847992
Parent8501473,Les Planches (Aigle),46.3553418,7.05526943
Parent8501474,Le Sépey,46.36123771,7.05279008
Parent8501475,Les Echenards,46.355348,7.08505756
Parent8501476,Les Aviolats,46.35296714,7.11315686
Parent8501477,Vers-l'Eglise,46.35363057,7.13414151
Parent8501479,Les Diablerets,46.35116282,7.15501836
Parent8501480,Rennaz (Leysin),46.32736012,7.00086745
Parent8501481,Leysin-Village,46.33926277,7.00605073
Parent8501482,Leysin-Feydey,46.34444107,7.0083594
Parent8501483,Leysin-Grand-Hôtel,46.34555108,7.00642803
Parent8501484,Aigle-Dépôt,46.31829029,6.97537327
Parent8501485,Fontanney,46.31832131,6.98229928
Parent8501487,Bex-Place-du-Marché,46.25090815,7.01443201
Parent8501488,Bévieux,46.25898919,7.03088017
Parent8501490,Fontannaz-Seulaz,46.2676031,7.05585333
Parent8501491,Les Posses,46.27116751,7.05088565
Parent8501492,Gryon,46.27358298,7.05970711
Parent8501493,Gryon Barboleuse,46.28274714,7.07048689
Parent8501494,Arveyes,46.29125179,7.06268951
Parent8501495,Villars-sur-Ollon,46.29626085,7.05623063
Parent8501497,Col-de-Soud,46.30493716,7.06954366
Parent8501498,Bouquetins,46.31639797,7.07233742
Parent8501499,Col-de-Bretaye,46.32193205,7.07361303
Parent8501500,Martigny,46.10583124,7.0791197
Parent8501501,Charrat-Fully,46.12681031,7.12647888
Parent8501502,Saxon,46.14938082,7.17343382
Parent8501503,Riddes,46.17250816,7.21785551
Parent8501504,Chamoson-St-Pierre-de-Clages,46.18883517,7.24109493
Parent8501505,Ardon,46.20859526,7.27094594
Parent8501506,Sion,46.22755278,7.35919644
Parent8501507,St-Léonard,46.25149206,7.41957221
Parent8501509,Sierre/Siders,46.2921208,7.53282282
Parent8501510,Châteauneuf-Conthey,46.21611068,7.30509989
Parent8501552,Les Montuires,46.06694064,6.94633073
Parent8501554,Aigle-Place-du-Marché,46.31724177,6.9703427
Parent8501561,Vernayaz MC,46.13041499,7.04460643
Parent8501562,Salvan,46.12161143,7.0210526
Parent8501563,Les Marécottes,46.1123145,7.01169215
Parent8501564,Le Trétien,46.10231838,6.99772335
Parent8501565,Finhaut,46.08240172,6.97612785
Parent8501566,Le Châtelard VS,46.06028998,6.95801782
Parent8501568,Le Châtelard-Frontière,46.053252,6.94987908
Parent8501572,Martigny-Bourg,46.09304311,7.0697323
Parent8501573,Martigny-Croix,46.08670712,7.05850336
Parent8501575,Bovernier,46.0786942,7.082156
Parent8501576,Sembrancher,46.0769307,7.14582859
Parent8501577,La Douay,46.05249765,7.14873913
Parent8501578,Orsières,46.02803508,7.14361874
Parent8501579,Le Châble VS,46.07934225,7.21486412
Parent8501580,Etiez,46.08295004,7.16057893
Parent8501600,Salgesch,46.30919414,7.57819672
Parent8501601,Leuk,46.3115769,7.64493256
Parent8501602,Turtmann,46.30933065,7.69960403
Parent8501603,Gampel-Steg,46.3065134,7.74758305
Parent8501604,Raron,46.30627138,7.80150892
Parent8501605,Visp,46.29402638,7.88146796
Parent8501609,Brig,46.31942565,7.98809799
Parent8501634,Muttbach-Belvédère,46.56720606,8.40433237
Parent8501635,Gletsch,46.56130771,8.36148273
Parent8501636,Eyholz,46.29678221,7.91630463
Parent8501661,Oberwald,46.53084844,8.34294151
Parent8501662,Obergesteln,46.51328798,8.32613403
Parent8501663,Ulrichen,46.50501572,8.30882349
Parent8501664,Geschinen,46.49165256,8.28210759
Parent8501665,Münster VS,46.48536252,8.26653081
Parent8501666,Reckingen VS,46.46822665,8.24388428
Parent8501667,Gluringen,46.46278164,8.233904
Parent8501668,Biel (Goms),46.45505869,8.21943214
Parent8501669,Blitzingen,46.44466686,8.20496926
Parent8501670,Niederwald,46.43533172,8.19020994
Parent8501671,Fürgangen-Bellwald Talstation,46.41189395,8.152319
Parent8501672,Fiesch,46.40628225,8.134191
Parent8501673,Lax,46.38700856,8.11714996
Parent8501674,Grengiols,46.37520927,8.09168272
Parent8501675,Bettmeralp Talstation,46.37115578,8.07651916
Parent8501676,Mörel,46.3562098,8.04714425
Parent8501677,Bitsch,46.33605632,8.01722137
Parent8501679,Findelbach,46.00967013,7.74885866
Parent8501683,Stalden-Saas,46.23197734,7.87075106
Parent8501684,Kalpetran,46.21407186,7.83696542
Parent8501685,St. Niklaus VS,46.17734146,7.80208384
Parent8501686,Herbriggen,46.13214565,7.79163643
Parent8501687,Randa,46.09993275,7.78145852
Parent8501688,Täsch,46.06745794,7.77450556
Parent8501689,Zermatt,46.02399956,7.74783458
Parent8501690,Zermatt GGB,46.02394342,7.74867001
Parent8501691,Riffelalp,46.00489699,7.75434737
Parent8501692,Riffelberg,45.99294673,7.75509297
Parent8501693,Rotenboden,45.98447078,7.76536969
Parent8501694,Gornergrat,45.983316,7.78219514
Parent8501725,Versmont,46.34142097,7.00694905
Parent8501726,Corbier,46.27217966,6.95144215
Parent8501727,La Clairière,46.28834049,7.06799856
Parent8501729,Fiesch Feriendorf,46.39732464,8.13076842
Parent8501950,Preglia,46.14542884,8.29304907
Parent8501951,Varzo,46.20630748,8.24514192
Parent8501952,Iselle di Trasquera,46.20700999,8.20701742
Parent8502000,Aarburg-Oftringen,47.32027079,7.90821979
Parent8502001,Zofingen,47.28805268,7.94311934
Parent8502002,Brittnau-Wikon,47.26266763,7.95704323
Parent8502003,Reiden,47.24146651,7.96877522
Parent8502004,Dagmersellen,47.2175601,7.979025
Parent8502005,Nebikon,47.19237932,7.97745295
Parent8502006,Wauwil,47.18385689,8.019018
Parent8502007,Sursee,47.17079587,8.09789008
Parent8502008,Nottwil,47.1388106,8.13860173
Parent8502009,Sempach-Neuenkirch,47.11605,8.19597713
Parent8502010,St. Erhard-Knutwil,47.18008363,8.0745788
Parent8502011,Oberkirch LU,47.15523936,8.11423043
Parent8502012,Emmenbrücke Kapf,47.0909128,8.27318732
Parent8502017,Waldibrücke,47.10790051,8.31971107
Parent8502019,Ermensee,47.2296885,8.24231223
Parent8502020,Rothenburg Station,47.08918193,8.24755839
Parent8502021,Emmenbrücke,47.0706036,8.28256574
Parent8502022,Eschenbach LU,47.13239412,8.32279229
Parent8502023,Ballwil,47.15376715,8.31689935
Parent8502024,Hochdorf,47.16697282,8.28870123
Parent8502025,Baldegg,47.18568847,8.28023012
Parent8502026,Gelfingen,47.21355736,8.26482401
Parent8502027,Hitzkirch,47.22267292,8.25200505
Parent8502028,Emmenbrücke Gersag,47.07831222,8.27681652
Parent8502029,Mosen,47.24429015,8.22415728
Parent8502030,Seon,47.34615166,8.15880484
Parent8502031,Hallwil,47.32863734,8.17594469
Parent8502032,Boniswil,47.3150395,8.18455954
Parent8502033,Birrwil,47.28785769,8.19901343
Parent8502034,Beinwil am See,47.26722138,8.20223838
Parent8502042,Hochdorf Schönau,47.16456648,8.29873541
Parent8502043,Seon Nord,47.35315698,8.16025113
Parent8502100,Safenwil,47.32175665,7.98351658
Parent8502101,Kölliken,47.33730087,8.02646503
Parent8502102,Oberentfelden,47.35648585,8.04838392
Parent8502103,Suhr,47.37163658,8.08229533
Parent8502104,Hunzenschwil,47.38828518,8.12569294
Parent8502105,Othmarsingen,47.40743339,8.21480581
Parent8502106,Mägenwil,47.41450959,8.23515265
Parent8502110,Dulliken,47.35427677,7.946497
Parent8502111,Däniken SO,47.35638849,7.97877347
Parent8502112,Schönenwerd SO,47.37142364,8.00016236
Parent8502113,Aarau,47.3913625,8.0512765
Parent8502114,Rupperswil,47.403293,8.12695956
Parent8502115,Wildegg,47.41527552,8.16301794
Parent8502116,Schinznach Bad,47.45178379,8.16695256
Parent8502119,Lenzburg,47.3911983,8.17039311
Parent8502120,Küngoldingen,47.30214481,7.94179882
Parent8502121,Walterswil-Striegel,47.31992368,7.96320567
Parent8502122,Kölliken Oberdorf,47.32468562,8.01908986
Parent8502123,Buchs AG,47.38973872,8.06958416
Parent8502128,Holderbank AG,47.42864092,8.16662018
Parent8502160,Gränichen,47.36166436,8.09878839
Parent8502161,Teufenthal AG,47.32941061,8.11448196
Parent8502162,Unterkulm,47.31013051,8.11512875
Parent8502163,Oberkulm,47.30148689,8.12190205
Parent8502164,Gontenschwil,47.28035617,8.14445874
Parent8502165,Zetzwil,47.28222098,8.15325325
Parent8502166,Leimbach AG,47.2727134,8.16786884
Parent8502167,Reinach AG Nord,47.25706482,8.18165798
Parent8502168,Reinach AG,47.25006505,8.18453259
Parent8502169,Menziken,47.24092371,8.18932061
Parent8502174,Bleien Liebegg,47.34352823,8.11354771
Parent8502176,Reinach AG Mitte,47.25450404,8.18339173
Parent8502177,Schöftland Nordweg,47.31110504,8.0512226
Parent8502178,Obermuhen,47.32940452,8.05448348
Parent8502179,Mittelmuhen,47.33453089,8.0543128
Parent8502180,Muhen Nord,47.34348562,8.05267787
Parent8502181,Oberentfelden Uerkenbrücke,47.36107412,8.04567101
Parent8502182,Unterentfelden Oberdorf,47.36473715,8.04202385
Parent8502184,Gränichen Oberdorf,47.35654062,8.10648696
Parent8502185,Bremgarten Isenlauf,47.34606645,8.34152217
Parent8502186,Dietikon Stoffelbach,47.39332678,8.39896045
Parent8502187,Rudolfstetten Hofacker,47.36467022,8.37695172
Parent8502188,Zufikon Hammergut,47.35595641,8.35459265
Parent8502189,Gränichen Töndler,47.36398874,8.09204205
Parent8502191,Binzenhof,47.38321269,8.0505848
Parent8502192,Distelberg,47.37599845,8.04936309
Parent8502194,Oberentfelden Engelplatz,47.35616941,8.04662323
Parent8502195,Muhen,47.33878016,8.05326178
Parent8502196,Unterentfelden Post,47.3686737,8.0444493
Parent8502197,Hirschthal,47.31988714,8.0528216
Parent8502199,Schöftland,47.30587893,8.05001886
Parent8502200,Ebikon,47.08426422,8.3423576
Parent8502201,Gisikon-Root,47.12132541,8.39479226
Parent8502202,Rotkreuz,47.14176192,8.43049131
Parent8502203,Cham,47.17824574,8.45750365
Parent8502204,Zug,47.17370877,8.51504973
Parent8502205,Walchwil,47.09868575,8.51693619
Parent8502206,Baar,47.19536428,8.52326932
Parent8502208,Horgen Oberdorf,47.25874755,8.58981651
Parent8502209,Oberrieden Dorf,47.27672995,8.57765332
Parent8502211,Hendschiken,47.38942855,8.20738573
Parent8502212,Dottikon-Dintikon,47.37364418,8.23471248
Parent8502213,Wohlen AG,47.34846456,8.26979169
Parent8502214,Boswil-Bünzen,47.30518451,8.31528238
Parent8502215,Muri AG,47.276669,8.33982435
Parent8502216,Benzenschwil,47.24685143,8.36561498
Parent8502217,Mühlau,47.22502172,8.38852202
Parent8502218,Sins,47.18831363,8.39782857
Parent8502219,Oberrüti,47.16592846,8.40478153
Parent8502220,Urdorf,47.39088206,8.43473136
Parent8502221,Birmensdorf ZH,47.3574291,8.43755207
Parent8502222,Bonstetten-Wettswil,47.32590344,8.46819361
Parent8502223,Hedingen,47.29878205,8.44596929
Parent8502224,Affoltern am Albis,47.27607172,8.44659811
Parent8502225,Mettmenstetten,47.24407061,8.45737789
Parent8502226,Knonau,47.220263,8.46672935
Parent8502227,Steinhausen,47.19458296,8.4784344
Parent8502229,Urdorf Weihermatt,47.38096823,8.4303386
Parent8502230,Zug Chollermüli,47.18023627,8.486645
Parent8502231,Zug Oberwil,47.14768239,8.50993832
Parent8502237,Lupfig,47.44518646,8.21499446
Parent8502247,Birr,47.43584795,8.21766246
Parent8502248,Bremgarten Obertor,47.35057042,8.34374999
Parent8502268,Zufikon Belvédère,47.35767251,8.35928186
Parent8502269,Erdmannlistein,47.34936534,8.31262336
Parent8502270,Bergfrieden,47.39746794,8.39896045
Parent8502271,Wohlen Oberdorf,47.34685163,8.28688663
Parent8502272,Bremgarten West,47.34568907,8.33711144
Parent8502273,Bremgarten,47.35151985,8.34648985
Parent8502274,Zufikon,47.3525849,8.35468249
Parent8502275,Widen Heinrüti,47.36192601,8.35487113
Parent8502276,Berikon-Widen,47.36192601,8.36636957
Parent8502277,Rudolfstetten,47.36976275,8.38153313
Parent8502278,Reppischhof,47.38400339,8.39617567
Parent8502300,Zug Postplatz,47.16827367,8.51693619
Parent8502306,Hünenberg Chämleten,47.1691592,8.44991289
Parent8502476,Vevey Vignerons,46.46908048,6.8528251
Parent8503000,Zürich HB,47.3781762,8.54021154
Parent8503001,Zürich Altstetten,47.39148412,8.48896266
Parent8503003,Zürich Stadelhofen,47.36661116,8.54848503
Parent8503004,Zürich Tiefenbrunnen,47.35012612,8.56139382
Parent8503006,Zürich Oerlikon,47.41153089,8.54413718
Parent8503007,Zürich Seebach,47.41875243,8.5446582
Parent8503008,Zürich Affoltern,47.42091019,8.50858186
Parent8503009,Zürich Wollishofen,47.34744203,8.53359994
Parent8503010,Zürich Enge,47.36409827,8.53082415
Parent8503011,Zürich Wiedikon,47.3714784,8.52348491
Parent8503015,Zürich Wipkingen,47.39304096,8.52937786
Parent8503016,Zürich Flughafen,47.45038663,8.56239993
Parent8503020,Zürich Hardbrücke,47.38519552,8.51712484
Parent8503051,Zürich Binz,47.36276572,8.51829265
Parent8503052,Zürich Friesenberg,47.36479799,8.50750388
Parent8503053,Zürich Schweighof,47.36494402,8.50353333
Parent8503054,Zürich Triemli,47.3649927,8.49537663
Parent8503055,Uitikon Waldegg,47.36592362,8.46592087
Parent8503056,Ringlikon,47.36029524,8.47742829
Parent8503057,Uetliberg,47.35207368,8.4875523
Parent8503086,Zürich Brunau,47.35164157,8.52623376
Parent8503087,Zürich Saalsporthalle,47.35779422,8.52196676
Parent8503089,Wildpark-Höfli,47.29654009,8.5356481
Parent8503090,Zürich Selnau,47.37223886,8.53172246
Parent8503091,Zürich Giesshübel,47.3626136,8.52201167
Parent8503093,Zürich Manegg,47.33800704,8.51974792
Parent8503094,Zürich Leimbach,47.33304539,8.51856214
Parent8503095,Sood-Oberleimbach,47.31961919,8.5215176
Parent8503096,Adliswil,47.31227444,8.52425746
Parent8503097,Langnau-Gattikon,47.28730928,8.54383175
Parent8503098,Sihlwald,47.26829422,8.55751309
Parent8503099,Sihlau,47.30329005,8.52516476
Parent8503100,Zollikon,47.3373374,8.56973917
Parent8503101,Küsnacht ZH,47.31915637,8.58063573
Parent8503102,Erlenbach ZH,47.30579365,8.59152331
Parent8503103,Herrliberg-Feldmeilen,47.28182487,8.61273253
Parent8503104,Meilen,47.26981202,8.64430832
Parent8503105,Uetikon,47.259028,8.67878566
Parent8503106,Männedorf,47.25342481,8.69235022
Parent8503107,Stäfa,47.24052729,8.72165326
Parent8503108,Uerikon,47.23586146,8.75262717
Parent8503109,Feldbach,47.23920382,8.78350227
Parent8503110,Rapperswil SG,47.2248875,8.81674892
Parent8503111,Winkel am Zürichsee,47.29721025,8.59898831
Parent8503112,Kempraten,47.23839874,8.81431448
Parent8503113,Blumenau,47.22367346,8.8424048
Parent8503115,Schmerikon,47.22516203,8.94338442
Parent8503116,Uznach,47.22428353,8.98069146
Parent8503117,Kaltbrunn,47.2179811,9.02242719
Parent8503118,Benken SG,47.20445855,9.00865601
Parent8503119,Schänis,47.15765834,9.04397777
Parent8503120,Jona,47.23097561,8.83461641
Parent8503121,Rüti ZH,47.2604851,8.8540829
Parent8503122,Bubikon,47.27084215,8.82271373
Parent8503123,Wetzikon ZH,47.31802974,8.79228779
Parent8503124,Aathal,47.33596156,8.7656258
Parent8503125,Uster,47.35036957,8.71870679
Parent8503126,Nänikon-Greifensee,47.3693612,8.68641235
Parent8503127,Schwerzenbach ZH,47.38438658,8.65867238
Parent8503128,Dübendorf,47.40008261,8.62342249
Parent8503129,Wallisellen,47.41272239,8.59192755
Parent8503130,Hinwil,47.30005529,8.83971884
Parent8503131,Ettenhausen-Emmetschloo,47.32481958,8.83431098
Parent8503132,Bäretswil,47.33731913,8.85217847
Parent8503133,Neuthal,47.3578855,8.86436861
Parent8503134,Bauma,47.36883797,8.87822962
Parent8503135,Steg,47.35385077,8.93237108
Parent8503136,Fischenthal,47.33330109,8.9232981
Parent8503137,Gibswil,47.31371789,8.9155097
Parent8503138,Wald ZH,47.27268902,8.91400053
Parent8503139,Tann-Dürnten,47.26837956,8.85272645
Parent8503141,Küsnacht Goldbach,47.32685941,8.57596449
Parent8503147,Stettbach,47.39721255,8.59614065
Parent8503200,Kilchberg ZH,47.32442988,8.5480179
Parent8503201,Rüschlikon,47.30713373,8.55515951
Parent8503202,Thalwil,47.29597958,8.56477148
Parent8503203,Oberrieden,47.27967361,8.57846181
Parent8503204,Horgen,47.26148493,8.5969132
Parent8503205,Au ZH,47.24682094,8.64372441
Parent8503206,Wädenswil,47.2293042,8.67521935
Parent8503207,Richterswil,47.20837654,8.70747785
Parent8503208,Bäch SZ,47.20097972,8.7271779
Parent8503209,Pfäffikon SZ,47.20299991,8.77813035
Parent8503210,Freienbach SBB,47.20730858,8.75622044
Parent8503211,Altendorf,47.19396644,8.82290238
Parent8503220,Lachen SZ,47.1900657,8.85271746
Parent8503221,Siebnen-Wangen,47.18267243,8.90071445
Parent8503222,Schübelbach-Buttikon,47.17638948,8.93878505
Parent8503223,Reichenburg,47.17269508,8.98232639
Parent8503224,Bilten,47.15219104,9.02991914
Parent8503225,Ziegelbrücke,47.13615855,9.06004863
Parent8503226,Nieder- und Oberurnen,47.12236454,9.06239323
Parent8503227,Näfels-Mollis,47.09871632,9.06995705
Parent8503228,Netstal,47.06452769,9.05943778
Parent8503230,Glarus,47.03992326,9.07156503
Parent8503231,Ennenda,47.03296219,9.07719747
Parent8503232,Mitlödi,47.01013182,9.08121294
Parent8503233,Schwanden GL,46.99685045,9.07746696
Parent8503234,Nidfurn-Haslen,46.98589451,9.05927608
Parent8503235,Leuggelbach,46.97574539,9.04694221
Parent8503236,Luchsingen-Hätzingen,46.96507325,9.03901907
Parent8503237,Diesbach-Betschwanden,46.94618185,9.02437653
Parent8503238,Rüti GL,46.93454692,9.01303979
Parent8503239,Linthal,46.925566,8.99779538
Parent8503240,Linthal Braunwaldbahn,46.92830829,9.00264628
Parent8503280,Steinerberg,47.05221465,8.58528002
Parent8503282,Rothenthurm,47.10579722,8.67467137
Parent8503283,Einsiedeln,47.12858054,8.74447945
Parent8503284,Biberbrugg,47.15638167,8.72271328
Parent8503285,Schindellegi-Feusisberg,47.1764078,8.70938228
Parent8503286,Samstagern,47.19154911,8.68599015
Parent8503287,Burghalden,47.20867557,8.69271853
Parent8503288,Wollerau,47.19543753,8.72501296
Parent8503289,Freienbach SOB,47.20420222,8.75940047
Parent8503290,Biberegg,47.09360992,8.66944318
Parent8503292,Altmatt,47.13165465,8.69615009
Parent8503293,Grüenfeld,47.19829415,8.6872927
Parent8503294,Riedmatt SZ,47.19670716,8.71210417
Parent8503295,Wilen bei Wollerau,47.19758611,8.73433748
Parent8503299,Hurden,47.21414315,8.80074992
Parent8503300,Kempten,47.33204082,8.80472048
Parent8503301,Pfäffikon ZH,47.36708573,8.78479584
Parent8503302,Fehraltorf,47.38512253,8.75029155
Parent8503303,Illnau,47.40881952,8.72273124
Parent8503304,Kemptthal,47.45284074,8.7055824
Parent8503305,Effretikon,47.42581496,8.68668185
Parent8503306,Dietlikon,47.42019905,8.61927227
Parent8503307,Bassersdorf,47.43857009,8.62622523
Parent8503308,Kloten,47.44860673,8.58380678
Parent8503309,Kloten Balsberg,47.44228848,8.57071833
Parent8503310,Glattbrugg,47.43082866,8.55885158
Parent8503311,Rümlang,47.45406775,8.53276451
Parent8503312,Oberglatt ZH,47.47020452,8.51062104
Parent8503313,Niederglatt ZH,47.48747151,8.50331773
Parent8503314,Niederhasli,47.47832873,8.48871113
Parent8503315,Dielsdorf,47.48242072,8.45944401
Parent8503316,Steinmaur,47.48998459,8.44685862
Parent8503317,Schöfflisdorf-Oberweningen,47.49797222,8.41181534
Parent8503318,Niederweningen Dorf,47.50591615,8.38107499
Parent8503319,Niederweningen,47.51120133,8.36963045
Parent8503340,Opfikon,47.42995357,8.56179806
Parent8503400,Bülach,47.52394788,8.53620506
Parent8503401,Glattfelden,47.54855859,8.52405085
Parent8503402,Eglisau,47.57237594,8.5165589
Parent8503403,Hüntwangen-Wil,47.58126603,8.51284886
Parent8503404,Rafz,47.60379657,8.54345446
Parent8503405,Zweidlen,47.57044865,8.46791513
Parent8503408,Rekingen AG,47.56996984,8.32712217
Parent8503409,Bad Zurzach,47.58831279,8.29559131
Parent8503410,Rietheim,47.60074985,8.27732856
Parent8503411,Koblenz Dorf,47.60938681,8.24016525
Parent8503413,Kaiserstuhl AG,47.56644838,8.41916356
Parent8503414,Mellikon,47.56848492,8.35250856
Parent8503415,Rümikon AG,47.56538159,8.37366389
Parent8503420,Lottstetten,47.62573619,8.56681964
Parent8503421,Jestetten,47.65440188,8.57329649
Parent8503423,Neuhausen,47.68313046,8.62493166
Parent8503424,Schaffhausen,47.69828387,8.63275598
Parent8503425,Feuerthalen,47.69217103,8.6459702
Parent8503426,Langwiesen,47.68345098,8.66231954
Parent8503427,Schlatt TG,47.67950169,8.6875083
Parent8503428,Diessenhofen,47.68547087,8.7522948
Parent8503429,Schlattingen,47.66662359,8.77043178
Parent8503462,Herblingen,47.71721037,8.66428685
Parent8503463,Neuhausen Bad Bf,47.68212652,8.61287627
Parent8503464,Beringen Bad Bf,47.69498871,8.57444634
Parent8503465,Neunkirch,47.68915969,8.49481069
Parent8503466,Wilchingen-Hallau,47.67948959,8.46400746
Parent8503467,Trasadingen,47.66560119,8.43739936
Parent8503501,Döttingen,47.57527281,8.25636188
Parent8503502,Siggenthal-Würenlingen,47.52069025,8.24065933
Parent8503503,Turgi,47.49175703,8.25346032
Parent8503504,Baden,47.47642226,8.30770958
Parent8503505,Wettingen,47.45963753,8.31601001
Parent8503506,Killwangen-Spreitenbach,47.43332621,8.35421536
Parent8503508,Dietikon,47.40578578,8.40498814
Parent8503509,Schlieren,47.39917661,8.44724489
Parent8503511,Neuenhof,47.45066607,8.33125442
Parent8503512,Glanzenberg,47.39887867,8.42043917
Parent8503525,Otelfingen Golfpark,47.45582317,8.40211353
Parent8503526,Regensdorf-Watt,47.43656496,8.47208331
Parent8503527,Buchs-Dällikon,47.45340565,8.43560273
Parent8503528,Otelfingen,47.45493636,8.38753388
Parent8503529,Würenlos,47.44575754,8.35766489
Parent8504000,Pully-Nord,46.51467893,6.65798949
Parent8504003,Bossière,46.50975171,6.69932098
Parent8504007,Moreillon,46.50839773,6.78564908
Parent8504010,La Conversion,46.51308397,6.67832735
Parent8504011,Grandvaux,46.49694628,6.72265023
Parent8504012,Puidoux,46.49384185,6.76568851
Parent8504013,Chexbres-Village,46.48105741,6.77853442
Parent8504014,Palézieux,46.54276233,6.83787713
Parent8504016,Palézieux-Village,46.55711362,6.82887601
Parent8504017,Châtillens,46.57053479,6.81548213
Parent8504018,Ecublens-Rue,46.6104328,6.81105343
Parent8504020,Oron,46.57254799,6.83710458
Parent8504021,Vauderens,46.62145313,6.85004032
Parent8504023,Romont FR,46.69350503,6.91180848
Parent8504024,Villaz-St-Pierre,46.72057826,6.9606409
Parent8504025,Chénens,46.74921367,7.00042728
Parent8504026,Cottens FR,46.75121407,7.03479682
Parent8504027,Neyruz FR,46.76605165,7.06502513
Parent8504028,Rosé,46.78263216,7.06197086
Parent8504030,Villars-sur-Glâne,46.78982879,7.11638182
Parent8504040,Corseaux-Cornalles,46.470454,6.82477969
Parent8504060,Bossonnens,46.52570636,6.85323832
Parent8504061,Remaufens,46.52374087,6.87651367
Parent8504062,Châtel-St-Denis,46.52780775,6.89579152
Parent8504063,Semsales,46.57335078,6.92692712
Parent8504064,La Verrerie,46.58752112,6.92487896
Parent8504065,Vaulruz-Sud,46.61920729,6.98997089
Parent8504066,Vuadens-Sud,46.61796093,7.02017225
Parent8504067,La Tour-de-Trême,46.6085321,7.0642436
Parent8504070,Montbovon,46.48542437,7.04213606
Parent8504071,Lessoc,46.50737758,7.05254753
Parent8504072,Albeuve,46.51793052,7.05542214
Parent8504073,Neirivue,46.52828982,7.06155763
Parent8504074,Villars-sous-Mont,46.54380035,7.07293929
Parent8504075,Enney,46.56540265,7.08523723
Parent8504077,Gruyères,46.58261286,7.0732537
Parent8504078,Le Pâquier-Montbarry,46.59468206,7.05968914
Parent8504079,La Tour-de-Trême Ronclina,46.60561919,7.06144085
Parent8504086,Bulle,46.6192258,7.05300567
Parent8504088,Broc-Village,46.60405159,7.0987389
Parent8504089,Broc-Chocolaterie,46.60541553,7.10933902
Parent8504100,Fribourg/Freiburg,46.80314924,7.1510478
Parent8504101,Düdingen,46.85105344,7.18975621
Parent8504102,Schmitten FR,46.8629399,7.25392287
Parent8504103,Flamatt,46.88849149,7.31957175
Parent8504104,Thörishaus Station,46.90462307,7.3570315
Parent8504105,Niederwangen,46.92550465,7.37646206
Parent8504106,Bern Bümpliz Süd,46.93748503,7.39523685
Parent8504108,Bern Europaplatz,46.9442071,7.40611545
Parent8504113,Wünnewil,46.87186377,7.28065673
Parent8504115,Thörishaus Dorf,46.89356843,7.35186619
Parent8504117,Oberwangen,46.91457091,7.36219681
Parent8504120,Moudon,46.66805799,6.80251046
Parent8504121,Lucens,46.7077733,6.84215311
Parent8504122,Granges-Marnand,46.75884569,6.89429133
Parent8504123,Corcelles-Nord,46.83526219,6.96029055
Parent8504124,Dompierre FR,46.85440158,6.98537152
Parent8504125,Domdidier,46.86851059,7.01138673
Parent8504126,Avenches,46.88459905,7.04092333
Parent8504127,Faoug,46.90831153,7.07454727
Parent8504128,Murten/Morat,46.92534514,7.11528587
Parent8504129,Galmiz,46.95087313,7.15320376
Parent8504130,Yvonand,46.80087405,6.74668914
Parent8504131,Cheyres,46.8169459,6.78639468
Parent8504132,Estavayer-le-Lac,46.84449787,6.84297058
Parent8504133,Cugy FR,46.81602992,6.88916195
Parent8504134,Payerne,46.81965071,6.93988083
Parent8504135,Corcelles-Sud,46.82884605,6.95719137
Parent8504136,Cousset,46.81860568,6.97749329
Parent8504137,Léchelles,46.82845885,7.01162927
Parent8504138,Grolley,46.83198047,7.06604921
Parent8504139,Belfaux CFF,46.81692745,7.10623085
Parent8504140,Muntelier-Löwenberg,46.93797572,7.13326116
Parent8504141,Henniez,46.73499946,6.87010868
Parent8504181,Givisiez,46.81675532,7.12996434
Parent8504182,Belfaux-Village,46.82269961,7.11022836
Parent8504183,Pensier,46.84160997,7.13529135
Parent8504184,Courtepin,46.86712258,7.12270596
Parent8504185,Cressier FR,46.90017939,7.1497183
Parent8504186,Münchenwiler-Courgevaux,46.91090128,7.1162291
Parent8504188,Sugiez,46.96412915,7.11934626
Parent8504191,Flamatt Dorf,46.88989737,7.31051673
Parent8504192,Neuenegg,46.89413932,7.29986271
Parent8504194,Laupen BE,46.90129034,7.24201121
Parent8504200,Yverdon-les-Bains,46.78154336,6.64094845
Parent8504201,Grandson,46.80628515,6.64194558
Parent8504203,Concise,46.85088142,6.72315328
Parent8504205,Gorgier-St-Aubin,46.89907455,6.78102275
Parent8504206,Bevaix,46.92969471,6.81168226
Parent8504208,Boudry,46.95945742,6.83504744
Parent8504209,Colombier NE,46.96765413,6.84887251
Parent8504215,Travers,46.94241013,6.67655767
Parent8504216,Noiraigue,46.95492018,6.72179683
Parent8504217,Champ-du-Moulin,46.95991113,6.77498608
Parent8504218,Bôle,46.96942573,6.8383712
Parent8504219,Auvernier,46.97964347,6.87770843
Parent8504220,Neuchâtel-Serrières,46.98396412,6.90336431
Parent8504221,Neuchâtel,46.99672791,6.93570366
Parent8504222,St-Blaise CFF,47.01457863,6.98211063
Parent8504223,Cornaux NE,47.0385703,7.02337025
Parent8504224,Cressier NE,47.05195147,7.03953094
Parent8504225,Le Landeron,47.05663347,7.06633667
Parent8504226,La Neuveville,47.06283267,7.09523547
Parent8504228,Twann,47.09366496,7.15650058
Parent8504229,Tüscherz,47.11501075,7.19732002
Parent8504231,Les Deurres,46.98552682,6.89915121
Parent8504232,Corcelles-Peseux,46.98335128,6.88381697
Parent8504234,Chambrelien,46.96710854,6.81225718
Parent8504236,Les Geneveys-sur-Coffrane,47.01509311,6.85322035
Parent8504237,Les Hauts-Geneveys,47.04717724,6.87467212
Parent8504284,La Presta Mines d'asphalte,46.93109951,6.6543603
Parent8504285,Couvet,46.92295855,6.63529805
Parent8504286,Môtiers NE,46.91182178,6.61022607
Parent8504287,Fleurier,46.90476423,6.58131828
Parent8504288,Buttes,46.88834415,6.55319203
Parent8504291,La Brinaz,46.79444766,6.62021534
Parent8504292,Valeyres-sous-Montagny,46.79682151,6.61133998
Parent8504293,Essert-sous-Champvent,46.79535785,6.58015946
Parent8504294,Vuiteboeuf,46.80376414,6.55374
Parent8504295,Baulmes,46.78874628,6.52428425
Parent8504296,Six-Fontaines,46.77422257,6.49877209
Parent8504298,Ste-Croix,46.81943556,6.50070347
Parent8504300,Biel/Bienne,47.13289525,7.24290952
Parent8504301,Frinvillier-Taubenloch,47.16945844,7.25752511
Parent8504302,Reuchenette-Péry,47.18973604,7.24702381
Parent8504303,La Heutte,47.18949186,7.22539238
Parent8504304,Sonceboz-Sombeval,47.19515064,7.16876258
Parent8504305,Corgémont,47.19339874,7.14466078
Parent8504306,Cortébert,47.18933924,7.10730883
Parent8504307,Courtelary,47.1756323,7.06880704
Parent8504308,Cormoret,47.17294545,7.05411958
Parent8504309,Villeret,47.16020548,7.01967818
Parent8504310,St-Imier,47.15170843,7.00122678
Parent8504311,Sonvilier,47.14134031,6.96935455
Parent8504312,Renan BE,47.12572017,6.92538202
Parent8504314,La Chaux-de-Fonds,47.09837387,6.82598343
Parent8504315,Le Crêt-du-Locle,47.07723553,6.78458008
Parent8504316,Le Locle,47.05786358,6.74615016
Parent8504317,Le Locle-Col-des-Roches,47.04988881,6.72607281
Parent8504321,La Chaux-de-Fonds Les Forges,47.09133481,6.8127782
Parent8504325,Colombier NE Littorail,46.96587021,6.86541948
Parent8504381,La Chaux-de-Fonds-Grenier,47.09974978,6.833682
Parent8504382,Le Reymond,47.08707789,6.8440755
Parent8504383,La Corbatière,47.06955122,6.83492167
Parent8504384,La Sagne-Eglise,47.05089873,6.81851843
Parent8504385,La Sagne,47.03988653,6.80207926
Parent8504386,Les Coeudres,47.02285263,6.78016037
Parent8504387,Petit-Martel,47.01009507,6.75518721
Parent8504388,Les Ponts-de-Martel,46.99908058,6.73527156
Parent8504391,Les Frêtes,47.0585796,6.72578535
Parent8504392,Les Brenets,47.06720778,6.70738785
Parent8504398,Neuchâtel Place Pury Littorail,46.98941193,6.92818476
Parent8504400,Kerzers,46.97507729,7.19281048
Parent8504401,Fräschels,46.99912347,7.20604267
Parent8504402,Kallnach,47.02552257,7.235193
Parent8504403,Bargen BE,47.04016201,7.26118126
Parent8504404,Aarberg,47.04453898,7.27868942
Parent8504410,Zollikofen,47.00182523,7.46290694
Parent8504411,Münchenbuchsee,47.02137675,7.45194749
Parent8504412,Schüpfen,47.04185775,7.38600217
Parent8504413,Suberg-Grossaffoltern,47.05878155,7.33900231
Parent8504414,Lyss,47.07632399,7.30630363
Parent8504415,Busswil BE,47.09868575,7.31861954
Parent8504416,Brügg BE,47.12364202,7.2782223
Parent8504419,Biel Mett,47.14472529,7.27249105
Parent8504441,Studen BE,47.1115872,7.30081493
Parent8504461,Nidau,47.12384984,7.24219087
Parent8504462,Lattrigen,47.09694901,7.21443293
Parent8504463,Täuffelen,47.06651024,7.19855072
Parent8504464,Hagneck,47.05827973,7.18806738
Parent8504465,Lüscherz,47.04802806,7.17735047
Parent8504466,Siselen-Finsterhennen,47.03114983,7.18038678
Parent8504467,Brüttelen,47.02059899,7.14829896
Parent8504468,Ins Dorf,47.00558051,7.10680578
Parent8504469,Nidau Beunden,47.1198217,7.24032238
Parent8504470,Ipsach Herdi,47.11236974,7.22893174
Parent8504471,Ipsach,47.11737043,7.23548046
Parent8504472,Sutz,47.10187166,7.21941858
Parent8504474,Mörigen,47.08565273,7.21223206
Parent8504475,Gerolfingen,47.07497807,7.20124566
Parent8504480,St-Blaise-Lac,47.01210415,6.9846888
Parent8504481,Marin-Epagnier,47.00910888,7.01059621
Parent8504482,Gampelen,47.00936615,7.05644622
Parent8504483,Ins,46.99982802,7.09956535
Parent8504484,Müntschemier,46.99332126,7.14244194
Parent8504486,Gümmenen,46.94218321,7.23441146
Parent8504487,Rosshäusern,46.9343445,7.29687132
Parent8504488,Bern Riedbach,46.94115283,7.33405259
Parent8504489,Bern Bümpliz Nord,46.94582616,7.38975712
Parent8504490,Zihlbrücke,47.00927427,7.03057474
Parent8504495,Bern Stöckacker,46.9463597,7.40117471
Parent8504509,Neuchâtel Port-de-Serrières,46.9808876,6.90482857
Parent8504510,Auvernier Littorail,46.97423757,6.8788942
Parent8504511,Boudry Littorail,46.94948726,6.83914375
Parent8505000,Luzern,47.05017648,8.31017995
Parent8505001,Meggen,47.05014588,8.38306027
Parent8505002,Küssnacht am Rigi,47.08359137,8.43351864
Parent8505003,Immensee,47.09161614,8.46266897
Parent8505004,Arth-Goldau,47.04904413,8.54944622
Parent8505005,Steinen,47.04766692,8.60745044
Parent8505006,Schwyz,47.02639823,8.63215411
Parent8505007,Brunnen,46.99917248,8.61006454
Parent8505011,Merlischachen,47.06766057,8.40905751
Parent8505018,Meggen Zentrum,47.04519397,8.37439152
Parent8505062,Goldau A4,47.04358404,8.54725433
Parent8505063,Arth-Goldau RB,47.04888499,8.54777536
Parent8505064,Kräbel,47.04021099,8.53078821
Parent8505065,Fruttli,47.03839888,8.50497063
Parent8505066,Rigi Klösterli,47.04254337,8.48713009
Parent8505067,Rigi Wölfertschen-First,47.04725069,8.47651201
Parent8505068,Rigi Staffel,47.05368355,8.47423927
Parent8505069,Rigi Kulm,47.05517689,8.48523465
Parent8505071,Grubisbalm,47.0262084,8.48313259
Parent8505072,Freibergen,47.03004769,8.47973696
Parent8505073,Romiti Felsentor,47.03643978,8.47591912
Parent8505074,Rigi Kaltbad-First,47.04400642,8.4667024
Parent8505075,Rigi Staffelhöhe,47.04809539,8.46450153
Parent8505079,Mittlerschwanden,47.01919042,8.48246784
Parent8505111,Sisikon,46.94925423,8.62074551
Parent8505112,Flüelen,46.90173226,8.62430284
Parent8505113,Altdorf UR,46.87573871,8.63157919
Parent8505114,Erstfeld,46.82033918,8.65045279
Parent8505119,Göschenen,46.66581408,8.5888104
Parent8505163,Realp,46.59862635,8.50346146
Parent8505164,Hospental,46.62108294,8.57096087
Parent8505165,Andermatt,46.63688769,8.59328401
Parent8505170,Nätschen,46.64219808,8.60959741
Parent8505172,Oberalppass,46.66022857,8.67050319
Parent8505173,Tschamut-Selva,46.65674503,8.70908583
Parent8505174,Dieni,46.66993195,8.74286249
Parent8505175,Rueras,46.67822838,8.7549089
Parent8505176,Sedrun,46.68106959,8.769785
Parent8505177,Bugnei,46.68234531,8.78646671
Parent8505178,Mumpé Tujetsch,46.68211728,8.82655852
Parent8505179,Segnas,46.69099722,8.82981941
Parent8505180,Acla da Fontauna,46.69717103,8.84579145
Parent8505201,Airolo,46.52752345,8.60861825
Parent8505202,Ambrì-Piotta,46.51076563,8.68992477
Parent8505204,Faido,46.48307393,8.79070676
Parent8505205,Lavorgo,46.44090328,8.83974579
Parent8505207,Bodio TI,46.38025403,8.90657146
Parent8505209,Biasca,46.35198128,8.97417867
Parent8505212,Castione-Arbedo,46.22292278,9.04146249
Parent8505213,Bellinzona,46.19543302,9.02951489
Parent8505214,Giubiasco,46.1738145,9.0035985
Parent8505216,Rivera-Bironico,46.12397745,8.92528337
Parent8505217,Mezzovico,46.09427658,8.92858917
Parent8505218,Taverne-Torricella,46.05668694,8.9303319
Parent8505219,Lamone-Cadempino,46.0397221,8.93212853
Parent8505226,Grindelwald Terminal,46.62550652,8.01710459
Parent8505300,Lugano,46.00550223,8.94699565
Parent8505301,Paradiso,45.98937051,8.94688785
Parent8505302,Melide,45.95571278,8.94836109
Parent8505303,Maroggia-Melano,45.93243198,8.97393613
Parent8505304,Capolago-Riva S. Vitale,45.90283432,8.97890381
Parent8505305,Mendrisio,45.86911152,8.97860737
Parent8505306,Balerna,45.84674551,9.0050358
Parent8505307,Chiasso,45.83216992,9.03144627
Parent8505350,Sattel,47.08162169,8.63394176
Parent8505372,S. Nicolao,45.8863788,8.98887511
Parent8505373,Bellavista,45.91111651,9.00113711
Parent8505374,Monte Generoso Vetta,45.92803957,9.0190585
Parent8505390,Serocca,46.00852212,8.90456822
Parent8505391,Lugano FLP,46.00449141,8.94759752
Parent8505392,Magliaso Paese,45.98340963,8.89058145
Parent8505393,Cappella-Agnuzzo,45.99325878,8.92444794
Parent8505394,Bioggio,46.01210958,8.90888912
Parent8505395,Agno,45.99592986,8.90092106
Parent8505396,Magliaso,45.98164309,8.88412257
Parent8505397,Caslano,45.97774152,8.87628926
Parent8505398,Ponte Tresa,45.96998751,8.86047891
Parent8505399,Sorengo,46.00039176,8.93483246
Parent8505400,Locarno,46.17242107,8.80136078
Parent8505401,Tenero,46.17746587,8.85022913
Parent8505402,Gordola,46.17903955,8.86576998
Parent8505404,Cadenazzo,46.15262309,8.94169559
Parent8505405,Quartino,46.15129757,8.88732955
Parent8505406,Magadino-Vira,46.14531682,8.8501932
Parent8505407,S. Nazzaro,46.13515862,8.8070561
Parent8505408,Ranzo-S. Abbondio,46.11699741,8.77654033
Parent8505410,Gerra (Gambarogno),46.12204106,8.78496652
Parent8505412,Riazzino,46.17533852,8.8863953
Parent8505415,S. Antonino,46.15905106,8.9695254
Parent8505417,Minusio,46.17400734,8.81956963
Parent8505467,Solduno S. Martino,46.17199806,8.7703689
Parent8505470,Locarno FART,46.17264502,8.80263639
Parent8505471,Locarno S. Antonio,46.16881914,8.78632298
Parent8505472,Solduno,46.16947236,8.77760932
Parent8505473,Ponte Brolla,46.18563857,8.75330989
Parent8505491,Tegna,46.18602416,8.74276367
Parent8505492,Verscio,46.18456263,8.72947759
Parent8505493,Cavigliano,46.18376032,8.72120411
Parent8505494,Intragna,46.17765869,8.70226762
Parent8505495,Corcapolo,46.16876937,8.6758302
Parent8505496,Verdasio,46.16521075,8.64920414
Parent8505497,Palagnedra,46.16110436,8.63080664
Parent8505499,Camedo,46.15475131,8.61094489
Parent8505578,Zornasco,46.12970528,8.4908042
Parent8505580,Re,46.1272897,8.53888204
Parent8505581,S. Maria Maggiore,46.13644717,8.46059386
Parent8505584,Malesco,46.12918855,8.49889802
Parent8505585,Druogno,46.13309811,8.43365338
Parent8505588,Creggio,46.12466233,8.32455299
Parent8505589,Folsogno-Dissimo,46.13437426,8.55810598
Parent8505590,Gagnone-Orcesco,46.12860957,8.41961272
Parent8505593,Masera,46.13190286,8.32379841
Parent8505594,Prestinone,46.13304209,8.47951238
Parent8505597,Trontano,46.12260766,8.33399429
Parent8505599,Verigo,46.12174219,8.35152042
Parent8505861,Maccagno,46.0454088,8.73558613
Parent8505862,Pino-Tronzano,46.09892988,8.73695157
Parent8505874,Colmegna,46.02476053,8.75188157
Parent8506000,Winterthur,47.50033307,8.7238182
Parent8506001,Winterthur Grüze,47.49875514,8.75105512
Parent8506002,Winterthur Seen,47.48743509,8.76681157
Parent8506003,Sennhof-Kyburg,47.46517636,8.7603437
Parent8506004,Kollbrunn,47.45832562,8.77401606
Parent8506005,Rikon,47.44501028,8.79633021
Parent8506006,Rämismühle-Zell,47.44154118,8.81913844
Parent8506007,Turbenthal,47.43738525,8.84382414
Parent8506008,Wila,47.41777381,8.84849538
Parent8506009,Saland,47.39420855,8.85421765
Parent8506010,Sirnach,47.46199403,9.00047236
Parent8506011,Eschlikon TG,47.46148994,8.958539
Parent8506012,Guntershausen,47.47412106,8.91702785
Parent8506013,Aadorf,47.48811497,8.9033016
Parent8506014,Elgg,47.49853058,8.8634164
Parent8506015,Räterschen,47.49868231,8.79501867
Parent8506016,Oberwinterthur,47.50792471,8.76038862
Parent8506017,Wiesendangen,47.52554326,8.77603727
Parent8506018,Rickenbach-Attikon,47.53535709,8.78917064
Parent8506019,Islikon,47.54783705,8.84619569
Parent8506020,Seuzach,47.5357695,8.73888295
Parent8506021,Dinhard,47.55334233,8.75297752
Parent8506022,Thalheim-Altikon,47.56961831,8.75763977
Parent8506023,Ossingen,47.61461311,8.72411465
Parent8506024,Stammheim,47.63488356,8.78874843
Parent8506025,Etzwilen,47.66114232,8.81861741
Parent8506035,Schottikon,47.50011459,8.81171835
Parent8506036,Reutlingen,47.5296619,8.75215107
Parent8506038,Winterthur Wallrüti,47.51672259,8.76088269
Parent8506039,Schloss Laufen am Rheinfall,47.67656826,8.61426865
Parent8506041,Embrach-Rorbas,47.52058712,8.58706767
Parent8506042,Pfungen,47.51603701,8.64663495
Parent8506043,Winterthur Wülflingen,47.50643802,8.68093263
Parent8506044,Winterthur Töss,47.48980856,8.70931041
Parent8506045,Hettlingen,47.54544195,8.69482957
Parent8506046,Henggart,47.56425416,8.68507386
Parent8506047,Andelfingen,47.59376534,8.67800412
Parent8506048,Marthalen,47.63137857,8.65606726
Parent8506049,Dachsen,47.66708941,8.6138195
Parent8506100,Frauenfeld,47.558162,8.89656423
Parent8506101,Felben-Wellhausen,47.57710296,8.94317781
Parent8506102,Hüttlingen-Mettendorf,47.58234461,8.97455597
Parent8506103,Müllheim-Wigoltingen,47.58816738,9.01551914
Parent8506104,Märstetten,47.5828233,9.0621956
Parent8506105,Weinfelden,47.56622411,9.10636577
Parent8506106,Bürglen TG,47.54909822,9.14988016
Parent8506107,Erlen,47.55146284,9.22620103
Parent8506108,Oberaach,47.55331808,9.27106289
Parent8506109,Amriswil,47.55045031,9.30222545
Parent8506118,Triboltingen,47.66289688,9.10876427
Parent8506119,Kurzrickenbach Seepark,47.64307912,9.19635899
Parent8506121,Romanshorn,47.565521,9.37937276
Parent8506122,Uttwil,47.58602254,9.33970316
Parent8506123,Kesswil,47.59549793,9.31742494
Parent8506124,Güttingen,47.6087509,9.29224517
Parent8506125,Altnau,47.6213708,9.26591554
Parent8506126,Münsterlingen-Scherzingen,47.63342469,9.22700951
Parent8506127,Bottighofen,47.64070653,9.21310359
Parent8506128,Kreuzlingen Hafen,47.6491614,9.18198595
Parent8506131,Kreuzlingen,47.65255022,9.16907716
Parent8506132,Tägerwilen-Gottlieben,47.65961763,9.13298285
Parent8506133,Ermatingen,47.66999918,9.08566858
Parent8506134,Mannenbach-Salenstein,47.67364675,9.05280821
Parent8506135,Berlingen,47.67321124,9.02202294
Parent8506136,Steckborn,47.66450617,8.98103282
Parent8506137,Mammern,47.64416248,8.91400053
Parent8506138,Eschenz,47.64540923,8.87655875
Parent8506139,Stein am Rhein,47.65610825,8.85501715
Parent8506143,Münsterlingen Spital,47.63204448,9.23611843
Parent8506148,St. Katharinental,47.68756325,8.73203779
Parent8506168,Tägerschen,47.5093628,9.02478976
Parent8506169,Wiesengrund,47.50219012,8.94875635
Parent8506170,Münchwilen Pflegeheim,47.48149185,8.99194735
Parent8506171,Frauenfeld Marktplatz,47.55420323,8.89872917
Parent8506173,Weberei Matzingen,47.52729023,8.92195961
Parent8506174,Matzingen,47.52047186,8.93275735
Parent8506175,Jakobstal,47.50828878,8.94409409
Parent8506176,Wängi,47.49630924,8.95328386
Parent8506177,Rosental,47.49233973,8.97514885
Parent8506178,Münchwilen TG,47.47690799,8.99921472
Parent8506179,Lüdem,47.54188246,8.9024482
Parent8506181,Bronschhofen,47.47544472,9.03468021
Parent8506182,Bettwiesen,47.49862162,9.02078327
Parent8506183,Tobel-Affeltrangen,47.52130297,9.03371003
Parent8506184,Märwil,47.53313125,9.0692384
Parent8506185,Oppikon,47.55206307,9.06210577
Parent8506188,Bronschhofen AMP,47.48126722,9.03092525
Parent8506190,Bussnang,47.55608262,9.08415941
Parent8506193,Kehlhof,47.57225473,9.16975089
Parent8506194,Berg,47.58249004,9.17391908
Parent8506195,Siegershausen,47.61091902,9.16825969
Parent8506196,Lengwil,47.62559694,9.19028638
Parent8506197,Kreuzlingen Bernrain,47.64211678,9.16320217
Parent8506198,Tägerwilen Dorf,47.6537181,9.13955852
Parent8506200,Wattwil,47.29947655,9.08648605
Parent8506201,Lichtensteig,47.31969836,9.08318923
Parent8506202,Dietfurt,47.34455084,9.07832036
Parent8506203,Bütschwil,47.35958937,9.07514931
Parent8506204,Lütisburg,47.3848245,9.07109791
Parent8506205,Bazenheid,47.41012659,9.06905873
Parent8506206,Wil SG,47.46241309,9.04099536
Parent8506208,Uzwil,47.43644343,9.13098859
Parent8506209,Flawil,47.41519042,9.18978332
Parent8506210,Gossau SG,47.41183485,9.25305167
Parent8506211,Arnegg,47.44200293,9.25202759
Parent8506212,Hauptwil,47.47686549,9.2515964
Parent8506213,Bischofszell Stadt,47.49213943,9.24148137
Parent8506214,Sitterdorf,47.5052183,9.24900027
Parent8506215,Bischofszell Nord,47.50041804,9.23403434
Parent8506216,Kradolf,47.52472435,9.2015782
Parent8506217,Sulgen,47.53880181,9.18369275
Parent8506270,St. Gallen Marktplatz,47.42636193,9.37672273
Parent8506271,Gontenbad,47.33166335,9.37243777
Parent8506275,Steinegg,47.32011246,9.43078335
Parent8506276,Strahlholz,47.36655031,9.43186133
Parent8506277,Schwende,47.30005529,9.43558934
Parent8506278,Seebleiche,47.47736943,9.51699467
Parent8506280,Herisau Wilen,47.37567603,9.27925553
Parent8506281,Waldstatt,47.35751429,9.28610967
Parent8506282,Zürchersmühle,47.33017777,9.29282009
Parent8506283,Urnäsch,47.31782878,9.28546289
Parent8506284,Jakobsbad,47.32008201,9.32817778
Parent8506285,Gonten,47.32818069,9.34732986
Parent8506286,Appenzell,47.32853384,9.40952921
Parent8506288,Weissbad,47.31044723,9.43569713
Parent8506289,Wasserauen,47.28556042,9.42861841
Parent8506290,Herisau,47.39016443,9.27681211
Parent8506291,Schachen (Herisau),47.3851347,9.24320613
Parent8506292,Degersheim,47.37257955,9.20012293
Parent8506293,Mogelsberg,47.3637271,9.14202888
Parent8506294,Brunnadern-Neckertal,47.33782441,9.13059333
Parent8506297,Ebnat-Kappel,47.26366741,9.12099034
Parent8506298,Krummenau,47.24883329,9.16815189
Parent8506299,Nesslau-Neu St. Johann,47.22682748,9.19756273
Parent8506300,St. Gallen Winkeln,47.40393141,9.30086001
Parent8506301,St. Gallen Bruggen,47.40720236,9.32965101
Parent8506302,St. Gallen,47.42317726,9.36989554
Parent8506303,St. Gallen St. Fiden,47.43454152,9.39344038
Parent8506304,Mörschwil,47.47477075,9.41438011
Parent8506305,Goldach,47.47379924,9.46699444
Parent8506306,Rorschach Hafen,47.4785898,9.49291982
Parent8506307,Horn,47.49317736,9.46339219
Parent8506308,Arbon,47.5105885,9.43336151
Parent8506309,Egnach,47.54399272,9.38301992
Parent8506311,Rorschach,47.47800087,9.5051369
Parent8506312,Staad SG,47.48069046,9.53552691
Parent8506313,Rheineck,47.4668889,9.59091703
Parent8506314,St. Margrethen SG,47.45321735,9.63825825
Parent8506316,Au SG,47.43611531,9.64125862
Parent8506317,Heerbrugg,47.41039408,9.6272449
Parent8506318,Rebstein-Marbach,47.39263959,9.58675783
Parent8506319,Altstätten SG,47.37423427,9.55652054
Parent8506322,Rorschach Stadt,47.47559044,9.48936249
Parent8506350,Walzenhausen,47.45126745,9.60135545
Parent8506351,Ruderbach,47.46158712,9.59516606
Parent8506352,Wartensee,47.47175903,9.5336135
Parent8506353,Wienacht-Tobel,47.46623911,9.54067426
Parent8506354,Schwendi bei Heiden,47.45946747,9.53064906
Parent8506355,Heiden,47.44600054,9.53648811
Parent8506358,St. Gallen Spisertor,47.42473315,9.37962429
Parent8506359,St. Gallen Schülerhaus,47.42500664,9.38742167
Parent8506361,St. Gallen Notkersegg,47.42522544,9.4040405
Parent8506362,Schwarzer Bären,47.42258771,9.41536826
Parent8506364,Vögelinsegg,47.41609006,9.43638884
Parent8506365,Schützengarten,47.41272239,9.43825733
Parent8506366,Speicher,47.41100201,9.44271298
Parent8506367,Bendlehn,47.40695918,9.45051035
Parent8506368,Gfeld,47.40503188,9.45575651
Parent8506369,Trogen,47.40726316,9.4614159
Parent8506371,St. Gallen Riethüsli,47.41137892,9.36727246
Parent8506372,Lustmühle,47.40033799,9.35915169
Parent8506373,Niederteufen,47.39220781,9.36761382
Parent8506374,Sternen bei Teufen,47.38948329,9.37483627
Parent8506375,Teufen AR,47.39045027,9.38979322
Parent8506376,Steigbach,47.37701434,9.40491187
Parent8506377,Bühler,47.37297498,9.42109053
Parent8506378,Gais,47.360922,9.45115714
Parent8506379,Altstätten Stadt,47.37683793,9.53749422
Parent8506380,Hirschberg,47.33138328,9.42286021
Parent8506381,Sammelplatz,47.34826979,9.43245422
Parent8506382,Zweibrücken,47.36016137,9.44441977
Parent8506383,Hebrig,47.36215115,9.4648295
Parent8506384,Schachen (Gais),47.36154875,9.477361
Parent8506385,Rietli,47.36069685,9.48712568
Parent8506386,Stoss AR,47.36078813,9.49512069
Parent8506387,Kreuzstrasse,47.36562548,9.50523572
Parent8506388,Warmesberg,47.3653456,9.51322174
Parent8506389,Alter Zoll,47.36858244,9.5220432
Parent8506392,St. Gallen Haggen,47.40775561,9.33814908
Parent8506393,Wittenbach,47.46285036,9.38854456
Parent8506394,Roggwil-Berg,47.48558966,9.39202104
Parent8506395,Häggenschwil-Winden,47.50386505,9.3587205
Parent8506396,Muolen,47.51762656,9.33708906
Parent8506397,Steinebrunn,47.53153004,9.34986311
Parent8506398,Neukirch-Egnach,47.53879574,9.37585137
Parent8506400,Sandbüchel,47.47536579,9.52166591
Parent8506470,Teufen AR Stofel,47.39099761,9.37998362
Parent8506521,Oberei bei Wasen i.E.,47.04341876,7.77702084
Parent8507000,Bern,46.9488311,7.43912853
Parent8507002,Ostermundigen,46.95680257,7.48150206
Parent8507003,Gümligen,46.93431997,7.50550505
Parent8507005,Rubigen,46.89917276,7.54537228
Parent8507006,Münsingen,46.87335606,7.5594399
Parent8507007,Wichtrach,46.84160997,7.56885424
Parent8507008,Kiesen,46.81894378,7.57550178
Parent8507009,Uttigen,46.79431236,7.5826344
Parent8507063,Worb Dorf,46.92998304,7.56246722
Parent8507064,Vechigen,46.94643329,7.55640359
Parent8507065,Boll-Utzigen,46.95301934,7.54677365
Parent8507066,Stettlen,46.95682097,7.52410017
Parent8507067,Deisswil,46.95822505,7.51326649
Parent8507068,Bolligen,46.9695422,7.49742021
Parent8507069,Ittigen bei Bern,46.97331201,7.48413413
Parent8507070,Uetendorf,46.77492393,7.57284276
Parent8507071,Seftigen,46.78684569,7.54028782
Parent8507072,Burgistein,46.78943515,7.52122557
Parent8507073,Thurnen,46.81355854,7.51387735
Parent8507074,Kaufdorf,46.83788619,7.50185789
Parent8507075,Toffen,46.8584682,7.49603681
Parent8507076,Belp,46.8888844,7.49863294
Parent8507077,Kehrsatz,46.9088209,7.47235721
Parent8507078,Wabern bei Bern,46.9286641,7.44589285
Parent8507079,Bern Weissenbühl,46.93577984,7.43001961
Parent8507083,Köniz,46.92460893,7.41490995
Parent8507084,Moos,46.90998691,7.401022
Parent8507085,Gasel,46.90092821,7.40068962
Parent8507086,Niederscherli,46.8864348,7.38806829
Parent8507087,Mittelhäusern,46.87640191,7.36772145
Parent8507088,Lanzenhäusern,46.84192949,7.34706918
Parent8507089,Schwarzenburg,46.81910976,7.34255964
Parent8507091,Liebefeld,46.93001371,7.4189883
Parent8507092,Belp Steinbach,46.89516446,7.49309033
Parent8507093,Kehrsatz Nord,46.91583497,7.46610494
Parent8507094,Uetendorf Allmend,46.77312129,7.59488742
Parent8507095,Schwarzwasserbrücke,46.86279249,7.36237647
Parent8507096,Papiermühle,46.97425595,7.47658828
Parent8507100,Thun,46.75485153,7.6296073
Parent8507270,Gruben,46.49053933,7.28012673
Parent8507271,Schönried,46.50453963,7.29110414
Parent8507272,Saanenmöser,46.51760908,7.31172048
Parent8507273,Oeschseite,46.53136756,7.35228839
Parent8507274,Blankenburg,46.54110023,7.38531945
Parent8507275,Stöckli,46.51681165,7.38840067
Parent8507276,St. Stephan,46.50512701,7.40051894
Parent8507277,Matten i.S.,46.49371198,7.42163833
Parent8507278,Boden,46.47076954,7.43538256
Parent8507279,Lenk im Simmental,46.45857994,7.44352129
Parent8507281,Grubenwald,46.5798097,7.38296586
Parent8507284,Enge im Simmental,46.64753262,7.41762286
Parent8507286,Ringoldingen,46.6575589,7.52457628
Parent8507287,Burgholz,46.66575244,7.60323277
Parent8507288,Eifeld,46.6838675,7.64227355
Parent8507290,Zweisimmen,46.55348137,7.37486306
Parent8507291,Weissenbach,46.60356402,7.37429712
Parent8507292,Boltigen,46.62736961,7.39007153
Parent8507293,Oberwil im Simmental,46.65613462,7.43548137
Parent8507294,Weissenburg,46.65929759,7.47592353
Parent8507295,Därstetten,46.65871803,7.49569545
Parent8507296,Erlenbach im Simmental,46.65909413,7.55523578
Parent8507297,Oey-Diemtigen,46.65988947,7.57914894
Parent8507298,Wimmis,46.67571986,7.63559907
Parent8507299,Lattigen bei Spiez,46.69113894,7.65026856
Parent8507361,Eigergletscher,46.57480812,7.97407528
Parent8507364,Jungfraujoch,46.54747032,7.98208826
Parent8507372,Wengen,46.60490328,7.92100282
Parent8507373,Wengernalp,46.57556147,7.93894217
Parent8507374,Kleine Scheidegg,46.58479231,7.96012445
Parent8507375,Alpiglen,46.6001077,8.00190509
Parent8507376,Grindelwald Grund,46.62265005,8.02332991
Parent8507378,Grütschalp,46.59651536,7.89087332
Parent8507379,Mürren BLM,46.56410565,7.89724238
Parent8507380,Grindelwald,46.62435901,8.03331019
Parent8507381,Schwendi bei Grindelwald,46.63047258,8.0030729
Parent8507382,Burglauenen,46.63590697,7.97533293
Parent8507383,Lütschental,46.6370974,7.94899432
Parent8507384,Lauterbrunnen,46.59842883,7.90809403
Parent8507386,Breitlauenen,46.65984631,7.89558049
Parent8507387,Schynige Platte,46.65230551,7.91130101
Parent8507388,Wilderswil,46.66569695,7.86946647
Parent8507389,Zweilütschinen,46.63269945,7.89970376
Parent8507470,Lalden,46.30107085,7.90959421
Parent8507471,Eggerberg,46.30654443,7.88103677
Parent8507472,Ausserberg,46.31234632,7.84416991
Parent8507473,Hohtenn,46.32245937,7.7640851
Parent8507474,Goppenstein,46.36770945,7.75492229
Parent8507475,Kandersteg,46.49539408,7.6714149
Parent8507478,Frutigen,46.58891017,7.6514184
Parent8507480,Reichenbach im Kandertal,46.62512402,7.69006392
Parent8507481,Mülenen,46.63802876,7.69131258
Parent8507483,Spiez,46.68639413,7.68010161
Parent8507492,Interlaken Ost,46.69049811,7.86899934
Parent8507493,Interlaken West,46.6826288,7.85145525
Parent8507550,Allmend,46.59403391,7.93197125
Parent8507552,Brandegg,46.60918007,8.0111757
Parent8507555,Wengwald,46.60918624,7.91362765
Parent8507560,Winteregg,46.58180403,7.89604762
Parent8508001,Schönbühl SBB,47.01893933,7.49892938
Parent8508003,Hindelbank,47.04956441,7.54540821
Parent8508004,Lyssach,47.06376279,7.58132286
Parent8508005,Burgdorf,47.06070312,7.62169315
Parent8508006,Wynigen,47.10517355,7.66350972
Parent8508008,Herzogenbuchsee,47.18808775,7.70096049
Parent8508051,Bern Felsenau,46.96850009,7.44424893
Parent8508052,Bern Tiefenau,46.97274196,7.45019578
Parent8508053,Steinibach,46.98441761,7.45740026
Parent8508054,Worblaufen,46.97884058,7.45763383
Parent8508055,Unterzollikofen,46.99172815,7.45701399
Parent8508056,Moosseedorf,47.01614044,7.48485278
Parent8508057,Schönbühl RBS,47.02048263,7.49780649
Parent8508058,Urtenen,47.02889043,7.50065415
Parent8508059,Jegenstorf,47.04761183,7.50777779
Parent8508060,Grafenried,47.08012297,7.51161359
Parent8508061,Fraubrunnen,47.08658245,7.52221371
Parent8508062,Büren zum Hof,47.0959522,7.5188091
Parent8508063,Schalunen,47.11016269,7.52417204
Parent8508064,Bätterkinden,47.13002289,7.53440385
Parent8508066,Lohn-Lüterkofen,47.1629907,7.52695682
Parent8508068,Biberist RBS,47.18386299,7.55582867
Parent8508070,Oberzollikofen,46.99694848,7.46163133
Parent8508071,Schönbühl Shoppyland,47.01862086,7.49362932
Parent8508080,Oberburg,47.03961104,7.62934679
Parent8508081,Burgdorf Steinhof,47.05119864,7.61953719
Parent8508083,Burgdorf Buchmatt,47.06545778,7.60827232
Parent8508084,Kirchberg-Alchenflüh,47.08290015,7.58106235
Parent8508085,Aefligen,47.09559138,7.55925125
Parent8508086,Utzenstorf,47.12953396,7.5536278
Parent8508087,Wiler,47.1522949,7.55593647
Parent8508088,Gerlafingen,47.17056381,7.56528793
Parent8508089,Biberist Ost,47.18060262,7.56619523
Parent8508100,Langenthal,47.21730384,7.7847194
Parent8508101,Roggwil-Wynau,47.25163825,7.81491178
Parent8508102,Murgenthal,47.26538042,7.83210554
Parent8508103,Rothrist,47.3064576,7.87939285
Parent8508151,Langenthal Gaswerk,47.22480209,7.78217717
Parent8508152,Hard-Mumenthal,47.23381202,7.77488285
Parent8508153,Aarwangen,47.24087492,7.76961872
Parent8508154,Aarwangen Schloss,47.24518052,7.76361798
Parent8508155,Bannwil,47.24438163,7.7403606
Parent8508157,Holzhäusern,47.25816226,7.71040178
Parent8508158,Scharnageln,47.26310046,7.70078981
Parent8508159,Niederbipp Dorf,47.26581933,7.6951394
Parent8508161,Kaltenherberg,47.23717891,7.79958652
Parent8508162,Roggwil Dorf,47.239338,7.82234085
Parent8508163,St. Urban,47.2317503,7.83581558
Parent8508164,St. Urban Ziegelei,47.2271996,7.83614795
Parent8508168,Roggwil Buchägerten,47.23566017,7.83194384
Parent8508173,Roggwil Schmitten,47.23761805,7.81591789
Parent8508174,Gutenburg,47.18179323,7.79328933
Parent8508181,Langenthal Süd,47.20533738,7.7801919
Parent8508182,Lotzwil,47.18949186,7.78859114
Parent8508183,Madiswil,47.16704611,7.79579563
Parent8508184,Lindenholz,47.15456129,7.79046862
Parent8508185,Kleindietwil,47.14630773,7.79097168
Parent8508186,Rohrbach,47.1372646,7.81347448
Parent8508187,Huttwil,47.11449112,7.84260684
Parent8508193,Aarwangen Vorstadt,47.23748997,7.77130756
Parent8508194,Huttwil Sportzentrum,47.11091469,7.8299406
Parent8508200,Worb SBB,46.91522748,7.56484776
Parent8508201,Tägertschi,46.88228433,7.58083777
Parent8508202,Konolfingen,46.88070019,7.62136975
Parent8508203,Zäziwil,46.89974973,7.6628809
Parent8508204,Bowil,46.90005049,7.69804995
Parent8508205,Signau,46.9196331,7.72546653
Parent8508206,Emmenmatt,46.94815653,7.74729559
Parent8508207,Langnau i.E.,46.93923923,7.78419838
Parent8508208,Trubschachen,46.92170079,7.8461462
Parent8508210,Escholzmatt,46.91535021,7.93638197
Parent8508211,Schüpfheim,46.95064625,8.01515524
Parent8508212,Hasle LU,46.97815414,8.04698255
Parent8508213,Entlebuch,46.99369503,8.06236171
Parent8508215,Wolhusen,47.05548902,8.07975309
Parent8508216,Werthenstein,47.05702515,8.10186063
Parent8508217,Schachen LU,47.03797033,8.143255
Parent8508218,Malters,47.03858254,8.18197239
Parent8508219,Luzern Littau,47.05306539,8.25711646
Parent8508250,Schwäbis,46.76266724,7.61928566
Parent8508251,Steffisburg,46.77299824,7.61516239
Parent8508252,Lädeli,46.78161102,7.60903588
Parent8508253,Heimberg,46.79087437,7.60613433
Parent8508254,Brenzikofen,46.8183475,7.61074268
Parent8508255,Oberdiessbach,46.83926267,7.61781243
Parent8508256,Stalden i.E.,46.87089346,7.62286994
Parent8508260,Grosshöchstetten,46.9046292,7.63491635
Parent8508261,Biglen,46.92461506,7.62670575
Parent8508262,Walkringen,46.94753715,7.6188904
Parent8508263,Bigenthal,46.96539817,7.623373
Parent8508264,Schafhausen i.E.,46.99446705,7.65675439
Parent8508265,Hasle-Rüegsau,47.01626293,7.65532607
Parent8508266,Lützelflüh-Goldbach,47.00502305,7.68227553
Parent8508267,Ramsei,46.99687496,7.70992567
Parent8508268,Zollbrück,46.97571474,7.74130383
Parent8508269,Neumühle,46.96564952,7.74936172
Parent8508271,Grünenmatt,47.00839833,7.72390346
Parent8508272,Sumiswald-Grünen,47.02544296,7.73715361
Parent8508273,Wasen i.E.,47.04341876,7.79136694
Parent8508275,Affoltern-Weier,47.06191477,7.74985579
Parent8508276,Häusernmoos,47.07858139,7.74968511
Parent8508278,Dürrenroth,47.09130423,7.79201372
Parent8508285,Gammenthal,47.03505611,7.73788125
Parent8508286,Griesbach,47.04432474,7.74208536
Parent8508287,Mussachen,47.09013605,7.77303232
Parent8508292,Hüswil,47.12857442,7.9058662
Parent8508293,Zell LU,47.1367513,7.92638373
Parent8508294,Gettnau,47.1400938,7.97014066
Parent8508295,Willisau,47.12271906,7.99672181
Parent8508297,Menznau,47.08342621,8.04088299
Parent8508301,Ringgenberg,46.70386161,7.89982054
Parent8508302,Niederried,46.71643346,7.92868341
Parent8508303,Oberried am Brienzersee,46.73655711,7.95892969
Parent8508304,Ebligen,46.75262354,7.99003835
Parent8508305,Brienz,46.75484538,8.03894263
Parent8508306,Brienzwiler,46.74568663,8.09063169
Parent8508308,Meiringen,46.72733367,8.18425411
Parent8508309,Brünig-Hasliberg,46.75776256,8.13865563
Parent8508310,Lungern,46.78635361,8.16356591
Parent8508311,Kaiserstuhl OW,46.81437005,8.17552249
Parent8508312,Giswil,46.83653426,8.18632024
Parent8508313,Sachseln,46.87096101,8.23830574
Parent8508314,Sarnen,46.89460586,8.24749551
Parent8508316,Alpnach Dorf,46.94058857,8.27534328
Parent8508317,Alpnachstad,46.95504282,8.27784958
Parent8508318,Hergiswil NW,46.98261587,8.31017995
Parent8508319,Horw,47.01748172,8.30699093
Parent8508320,Hergiswil Matt,46.99407491,8.31259642
Parent8508321,Luzern Allmend/Messe,47.03506836,8.30323597
Parent8508323,Sarnen Nord,46.90018553,8.24913044
Parent8508327,Ewil Maxon,46.86068567,8.2185967
Parent8508329,Brienz West,46.7573133,8.02037445
Parent8508350,Brienz BRB,46.75521465,8.03808923
Parent8508351,Planalp,46.77237069,8.01984445
Parent8508352,Brienzer Rothorn,46.78739927,8.03844856
Parent8508359,Innertkirchen Kraftwerk (Bahn),46.70225989,8.23251161
Parent8508384,Niederrickenbach Station,46.92812424,8.39593312
Parent8508390,Stansstad,46.97626638,8.33637482
Parent8508391,Stans,46.95839672,8.36657618
Parent8508392,Dallenwil,46.93378017,8.39196257
Parent8508394,Wolfenschiessen,46.90782057,8.39480125
Parent8508395,Innertkirchen Grimseltor,46.70557416,8.22959208
Parent8508396,Grafenort,46.87059867,8.37242421
Parent8508399,Engelberg,46.81952162,8.40250879
Parent8508449,Aemsigen,46.97052299,8.271229
Parent8508456,Pilatus Kulm,46.97942896,8.25594865
Parent8508458,Alpnachstad PB,46.95549656,8.27718483
Parent8508464,Vitznau,47.00936003,8.48238699
Parent8509000,Chur,46.85308692,9.52894226
Parent8509002,Landquart,46.96743958,9.55404119
Parent8509003,Maienfeld,47.00384074,9.52921175
Parent8509004,Bad Ragaz,47.01030946,9.50522674
Parent8509006,Chur Wiesental,46.86190801,9.53145754
Parent8509050,Chur West,46.85039608,9.51477583
Parent8509051,Haldenstein,46.8769607,9.53308349
Parent8509053,Untervaz-Trimmis,46.91898271,9.55917057
Parent8509054,Zizers,46.93484136,9.55959278
Parent8509055,Igis,46.94983066,9.56475809
Parent8509056,Landquart Ried,46.95720111,9.56086838
Parent8509057,Malans GR,46.97765156,9.57372328
Parent8509058,Seewis-Pardisla,46.97689155,9.63253598
Parent8509059,Grüsch,46.98048924,9.64577715
Parent8509060,Schiers,46.96802194,9.68804288
Parent8509061,Furna,46.93977897,9.70894668
Parent8509062,Jenaz,46.92974992,9.7183161
Parent8509063,Fideris,46.92236956,9.73375814
Parent8509064,Küblis,46.9142825,9.77183773
Parent8509065,Saas im Prättigau,46.90764873,9.80995325
Parent8509067,Klosters Dorf,46.88346933,9.87533263
Parent8509068,Klosters Platz,46.86921072,9.88093812
Parent8509069,Cavadürli,46.87040215,9.86802933
Parent8509070,Davos Laret,46.84819662,9.87339227
Parent8509071,Davos Wolfgang,46.83196203,9.85454562
Parent8509072,Davos Dorf,46.80972215,9.84211293
Parent8509073,Davos Platz,46.79147096,9.82073303
Parent8509075,Davos Frauenkirch,46.76659929,9.79925431
Parent8509076,Davos Glaris,46.74556967,9.77993155
Parent8509077,Davos Monstein,46.71590995,9.76000692
Parent8509078,Davos Wiesen,46.69548902,9.71583675
Parent8509150,Chur Altstadt,46.84741634,9.53172704
Parent8509152,Lüen-Castiel,46.83171005,9.61333898
Parent8509153,St. Peter-Molinis,46.82914721,9.653853
Parent8509154,Peist,46.82949753,9.67163066
Parent8509155,Langwies GR,46.81933106,9.70714106
Parent8509156,Litzirüti,46.79795306,9.70326932
Parent8509157,Arosa,46.78329035,9.67932922
Parent8509167,Trin,46.8165709,9.35952
Parent8509168,Versam-Safien,46.80737961,9.3103013
Parent8509169,Valendas-Sagogn,46.79179078,9.27545565
Parent8509170,Castrisch,46.77849212,9.23308212
Parent8509171,Ilanz,46.77534844,9.2074442
Parent8509173,Rueun,46.77469015,9.14561316
Parent8509174,Waltensburg/Vuorz,46.7695589,9.12014592
Parent8509175,Tavanasa-Breil/Brigels,46.75475922,9.06242917
Parent8509176,Trun,46.74254103,8.99043818
Parent8509177,Rabius-Surrein,46.73256746,8.95749696
Parent8509178,Sumvitg-Cumpadials,46.72406384,8.93102361
Parent8509179,Disentis/Mustér,46.70508135,8.85518783
Parent8509180,Felsberg,46.84309695,9.48127765
Parent8509181,Domat/Ems,46.833142,9.45316038
Parent8509182,Domat/Ems Werk,46.82863708,9.43038809
Parent8509183,Reichenau-Tamins,46.8236585,9.41254755
Parent8509184,Bonaduz,46.81028779,9.39776128
Parent8509185,Rhäzüns,46.79968107,9.39926147
Parent8509186,Rothenbrunnen,46.76786068,9.41960831
Parent8509187,Rodels-Realta,46.73514106,9.43293032
Parent8509188,Cazis,46.71987004,9.43293931
Parent8509189,Thusis,46.69819993,9.44050312
Parent8509192,Tiefencastel,46.66387833,9.57286089
Parent8509193,Surava,46.66686207,9.62093873
Parent8509194,Alvaneu,46.67125108,9.65072686
Parent8509195,Filisur,46.67533156,9.68229366
Parent8509197,Bergün/Bravuogn,46.63107094,9.74674778
Parent8509198,Preda,46.58815083,9.77730847
Parent8509199,Spinas,46.55983766,9.8453289
Parent8509202,Schiers Schlangenboden (Abzw),46.96106989,9.70149964
Parent8509250,Bever,46.54991065,9.888466
Parent8509251,Samedan,46.53375918,9.87362583
Parent8509252,Celerina,46.51398037,9.85844431
Parent8509253,St. Moritz,46.4979728,9.84638891
Parent8509254,Punt Muragl,46.50967752,9.88118965
Parent8509255,Pontresina,46.49065066,9.89606575
Parent8509256,La Punt Chamues-ch,46.57866741,9.92332962
Parent8509257,Madulain,46.58708279,9.93834945
Parent8509258,Zuoz,46.59994722,9.9614631
Parent8509259,S-chanf,46.61193851,9.98181893
Parent8509260,Cinuos-chel-Brail,46.63776354,10.02166819
Parent8509261,Carolina,46.67036961,10.05987354
Parent8509262,Zernez,46.69767008,10.08994015
Parent8509263,Susch,46.75208192,10.07933105
Parent8509264,Lavin,46.7695712,10.11096972
Parent8509265,Guarda,46.77152163,10.15053152
Parent8509266,Ardez,46.77353966,10.20105277
Parent8509267,Ftan Baraigla,46.78765145,10.25798799
Parent8509268,Scuol-Tarasp,46.79377115,10.28622204
Parent8509269,Sagliains,46.76339952,10.0965787
Parent8509350,Celerina Staz,46.50965279,9.86511879
Parent8509351,Punt Muragl Staz,46.50735285,9.88040811
Parent8509352,Surovas,46.48562848,9.90567772
Parent8509353,Morteratsch,46.45072023,9.94040659
Parent8509354,Bernina Suot,46.44485256,9.96938624
Parent8509356,Ospizio Bernina,46.40875989,10.01970088
Parent8509357,Alp Grüm,46.37475064,10.03113644
Parent8509358,Cavaglia,46.3643187,10.04414404
Parent8509359,Cadera,46.34527203,10.0513665
Parent8509361,Poschiavo,46.32479814,10.05432195
Parent8509363,Li Curt,46.31119219,10.06319731
Parent8509364,Le Prese,46.29114626,10.07819917
Parent8509365,Miralago,46.27311728,10.09955213
Parent8509366,Brusio,46.25931216,10.12526191
Parent8509367,Campascio,46.24467109,10.13169385
Parent8509368,Campocologno,46.23322012,10.14206041
Parent8509369,Tirano,46.21575016,10.1666473
Parent8509373,Bernina Lagalb,46.43632845,9.9915387
Parent8509400,Oberriet SG,47.32348604,9.57137867
Parent8509401,Rüthi SG,47.28673649,9.53605692
Parent8509402,Salez-Sennwald,47.24144821,9.50233416
Parent8509404,Buchs SG,47.16841413,9.4786366
Parent8509406,Sevelen,47.12537789,9.4938361
Parent8509411,Sargans,47.04482669,9.44626132
Parent8509412,Mels,47.05374476,9.41775778
Parent8509413,Flums,47.09661878,9.34793173
Parent8509414,Walenstadt,47.11987671,9.31297828
Parent8509416,Unterterzen,47.11385533,9.25501898
Parent8509417,Murg,47.11317673,9.21504395
Parent8509418,Mühlehorn,47.11784113,9.17302076
Parent8510456,Schmitten GR Landwasserviadukt,46.68027456,9.67185524
Parent8510470,Matten b. Interlaken,46.6741358,7.8728621
Parent8510670,Trélex dépôt,46.40661055,6.20884083
Parent8511308,Davos Kongress/Eisstadion,46.79934285,9.8336508
Parent8515296,Brig Bahnhofplatz,46.31900998,7.9863822
Parent8515778,Vernier-Meyrin Cargo,46.2223945,6.08570876
Parent8515992,Baar Neufeld,47.18849067,8.51778061
Parent8515993,Baar Lindenpark,47.18313645,8.51706196
Parent8515994,Zug Fridbach,47.15658325,8.5122919
Parent8515995,Cham Alpenblick,47.18228167,8.47146347
Parent8515996,Hünenberg Zythus,47.17360496,8.45009255
Parent8515997,Root D4,47.10482503,8.3737627
Parent8516154,Bern Brünnen Westside,46.94403538,7.37527628
Parent8516155,Lancy-Pont-Rouge,46.18594331,6.12494717
Parent8516161,Bern Wankdorf,46.96782578,7.46547612
Parent8516176,Klingnau,47.58155688,8.25029825
Parent8516187,Zug Schutzengel,47.17372709,8.50724337
Parent8516218,Winterthur Hegi,47.50148615,8.76894956
Parent8516219,Mellingen Heitersberg,47.42807574,8.27636736
Parent8516270,Arbon Seemoosriet,47.52119377,9.42501616
Parent8516271,Steinach,47.50095816,9.44200331
Parent8516272,Genève-Champel,46.19219327,6.15349563
Parent8516273,Genève-Eaux-Vives,46.20144564,6.16656612
Parent8516274,Chêne-Bourg,46.19660202,6.19733342
Parent8516283,Genève-Sécheron,46.222438,6.14455739
Parent8516350,Buchrain,47.09365273,8.35665878
Parent8516351,Kriens Mattenhof,47.02657581,8.30233765
Parent8516353,Baldegg Kloster,47.18061483,8.28059842
Parent8516354,Wolhusen Weid,47.06554345,8.06917094
Parent8516444,Kerzers Papiliorama,46.98977346,7.19927835
Parent8516445,Mundaditsch (Abzw),46.97695284,9.65981781
Parent8516450,Unterkulm Nord,47.31476544,8.11305364
Parent8517112,Walchwil Hörndli,47.10846301,8.50478199
Parent8517131,Pratteln Salina Raurica,47.53058991,7.70988974
Parent8517142,Lancy-Bachet,46.17433081,6.1293579
Parent8517336,Luzern Verkehrshaus,47.05393449,8.33730009
Parent8517376,Dietikon Schöneggstrasse,47.40196144,8.40099064
Parent8517377,Bibenlos-Sonnenhof,47.35378991,8.35028074
Parent8517481,S-chanf Marathon,46.61976259,9.99699147
Parent8517484,Aigle-Parc Aventure,46.31529977,6.98621593
Parent8517485,Sur-le-Buis,46.35330195,7.10063435
Parent8517519,Stabio,45.84971148,8.94394138
Parent8517527,Zug Casino,47.16231884,8.51520244
Parent8518100,St. Gallen Birnbäumen,47.42583319,9.39298224
Parent8518243,Beringerfeld,47.69536963,8.59217908
Parent8518400,Ei im Emmental,47.02762291,7.75589247
Parent8518452,Prilly-Malley,46.52668908,6.60262632
Parent8518459,Steinhausen Rigiblick,47.18786187,8.47970102
Parent8518475,Mendrisio S. Martino,45.87721736,8.98308996
Parent8518690,Niederbipp Industrie,47.27863756,7.70317034
Parent8518749,Lyss Grien,47.07268381,7.29650301
Parent8518771,Biel/Bienne Bözingenfeld/Champ,47.15837912,7.29465248
Parent8518924,Neuhausen Rheinfall,47.6798041,8.61694563
Parent8518963,Solothurn Allmend,47.20888305,7.5214232
Parent8519077,St-Cergue Les Cheseaux,46.44688279,6.14727929
Parent8519133,Fribourg/Freiburg Poya,46.81558114,7.15648261
Parent8519306,St. Gallen Güterbahnhof,47.41729969,9.36246647
Parent8519370,Bernina Diavolezza,46.44178849,9.98228605
Parent8519609,Küblis Ariesch (Abzw),46.9153993,9.76291746
Parent8519685,Aarau Torfeld,47.39356394,8.06264019
Parent8530011,Les Coeudres-Est,47.02879858,6.7895298
Parent8530012,Petit-Martel-Est,47.01458476,6.76680242
Parent8530064,Bex Pont-Neuf,46.25052302,7.02081904
Parent8530066,Grand-Moulin,46.2526226,7.02321754
